geonameid,name,asciiname,alternatenames,latitude,longitude
5653,Phrakhtaes,Phrakhtaes,,34.56717,33.02724
5654,Glossa tou Shyllou,Glossa tou Shyllou,,34.57083,33.02917
5655,Arkosyia,Arkosyia,,34.57917,33.025
5656,Ammoskatharaes,Ammoskatharaes,,34.56795,33.01775
5657,Skaloua Tris Kazoulies,Skaloua Tris Kazoulies,,34.57083,33.01667
5659,Shilliostasha,Shilliostasha,,34.575,33.02083
5660,Ammos tou Dhiplarkakou,Ammos tou Dhiplarkakou,,34.58333,33.01667
5662,Langouna tou Tarratsou,Langouna tou Tarratsou,,34.58795,33.00711
5663,Vounaroudhkia tou Vromonerou,Vounaroudhkia tou Vromonerou,,34.59167,33.00833
5664,Vromonero Kannoudhkia,Vromonero Kannoudhkia,,34.59583,33.00417
5665,Limnia,Limnia,,34.60417,33.00417
5666,Aplostres,Aplostres,,34.60833,33.00417
5667,Lamnies,Lamnies,,34.575,32.99167
5668,Monastery of Saint Nicolas of the Cats,Monastery of Saint Nicolas of the Cats,"Agios Nikolaos Monastery,Agios Nikolaos ton Gaton,Ayiou Nikolaou ton Gaton,Aynikola Manastiri,Aynikola Manastırı,Ayíou Nikoláou ton Gáton,Monastery of Saint Nicolas of the Cats,Moni Agiou Nikolaou,Moní Agíou Nikoláou,Ágios Nikólaos ton Gáton,Άγιος Νικόλαος των Γάτων",34.59949,32.98719
5669,Ais Varas,Ais Varas,,34.60833,32.99583
5670,Vatha,Vatha,,34.57653,32.96254
5671,Kavos Ayios Syllas,Kavos Ayios Syllas,"Kavos Agios Syllas,Kavos Ayios Syllas,Kávos Ágios Sýllas,Κάβος Άγιος Σύλλας",34.56861,32.96429
5672,Vounari tou Kambiou,Vounari tou Kambiou,,34.57314,32.95583
5673,Katalymata ton Plakoton,Katalymata ton Plakoton,"Katalymata ton Plakoton,Katalýmata ton Plakotón,Καταλύματα των Πλακωτών",34.58333,32.94583
5674,Panayiotis,Panayiotis,,34.5875,32.95
5675,Lakkos tou Savva,Lakkos tou Savva,,34.59583,32.94583
5676,Kapsali,Kapsali,,34.59663,32.95076
5677,Ayios Yeoryios,Ayios Yeoryios,"Agios Georgios,Ayios Yeoryios,Ágios Geórgios,Άγιος Γεώργιος",34.60332,32.93955
5678,Ktista,Ktista,"Khtista,Ktista",34.6125,33.00417
5684,Limnes tou Ayiou Yeoryiou,Limnes tou Ayiou Yeoryiou,,34.6125,32.94167
5685,Poly Nero,Poly Nero,,34.62083,32.9375
5686,Panayia Galousa,Panayia Galousa,"Panagia Galousa,Panagía Galoúsa,Panayia Galousa,Παναγία Γαλούσα",34.63862,32.94441
5687,Akrotiri Forest,Akrotiri Forest,,34.63046,32.92704
5688,Ayios Dhimitrianos,Ayios Dhimitrianos,"Agios Dimitrianos,Ayios Dhimitrianos,Ágios Dimitrianós,Άγιος Δημητριανός",34.64153,32.9211
5689,Ayios Theodhoros,Ayios Theodhoros,"Agios Theodoros,Ayios Theodhoros,Ágios Theódoros,Άγιος Θεόδωρος",34.65,32.9125
5690,Alakati,Alakati,Alakati,34.65365,32.89793
5698,Kochinoyia,Kochinoyia,Kochinoyia,34.65868,32.9871
5700,Toumpia,Toumpia,"Toumbia,Toumpia",34.67264,32.98551
5704,Lakkos tis Mavris,Lakkos tis Mavris,Lakkos tis Mavris,34.66341,32.97417
5705,Monovolikos,Monovolikos,Monovolikos,34.6793,32.97344
5708,Vounaro,Vounaro,Vounaro,34.65963,32.95258
5709,Panayia Kyparishotissa,Panayia Kyparishotissa,"Panagia Kyparissiotissa,Panagía Kyparissiótissa,Panayia Kyparishotissa,Παναγία Κυπαρισσιώτισσα",34.66441,32.94529
5710,Mantres,Mantres,"Mandres,Mantres",34.67083,32.95
5711,Kochinoin,Kochinoin,Kochinoin,34.67777,32.95271
5718,Jirlaou,Jirlaou,,34.67128,32.95377
5719,Shisti,Shisti,Shisti,34.66045,32.93027
5726,Panayia Vounarkotissa,Panayia Vounarkotissa,"Panagia Vounariotissa,Panagía Vounariótissa,Panayia Vounarkotissa,Παναγία Βουναριώτισσα",34.65617,32.92346
5728,Stronjylakas,Stronjylakas,Stronjylakas,34.65521,32.90532
5729,Kourka,Kourka,Kourka,34.6625,32.9125
5734,Ayios Ermoyenis,Ayios Ermoyenis,"Agios Ermogenis,Ayios Ermoyenis,Ágios Ermogénis,Άγιος Ερμογένης",34.66287,32.89106
5737,At Meydan,At Meydan,At Meydan,34.6708,32.87962
5738,Krommya,Krommya,Krommya,34.66659,32.88917
5742,Kourion Stadium,Kourion Stadium,"Kourion,Kourion Stadium,Koúrion,Κούριον",34.67054,32.8763
5743,Sanctuary of Apollo Hylates,Sanctuary of Apollo Hylates,"Ieron Apollonos Ylatou,Ierón Apóllonos Ylátou,Ilatis Apollo Mabedi,Sanctuary of Apollo Hylates,Sanctuary of Apollon Yiatis,İlatis Apollo Mabedi,Ιερόν Απόλλωνος Υλάτου",34.67285,32.86368
5745,Episkopi Forest,Episkopi Forest,"Episkopi,Episkopi Forest,Episkopí,Επισκοπή",34.68072,32.85146
5746,Apollo,Apollo,"Apollo,Apollon",34.67731,32.85685
5747,Ayios Yeoryios,Ayios Yeoryios,"Agios Georgios,Ayios Yeoryios,Ágios Geórgios,Άγιος Γεώργιος",34.70119,32.85205
5748,Kliousha,Kliousha,Kliousha,34.69371,32.84172
5749,Ayios Yeoryios,Ayios Yeoryios,"Agios Georgios,Ayios Yeoryios,Ágios Geórgios,Άγιος Γεώργιος",34.68331,32.82827
5750,Sýmvoulos,Symvoulos,"Simvulo,Symboulas,Symvoulas,Symvoulos,Sýmvoulos,Σύμβουλος",34.66279,32.81627
5751,Paramali Forest,Paramali Forest,"Paramali,Paramali Forest,Paramáli,Παραμάλι",34.66979,32.80988
5752,Teratsokambos,Teratsokambos,Teratsokambos,34.68436,32.80755
5753,Mnoukhos,Mnoukhos,Mnoukhos,34.66597,32.78653
5754,Mnoukhos,Mnoukhos,Mnoukhos,34.66777,32.78121
5755,Kouzaleron,Kouzaleron,Kouzaleron,34.67089,32.78596
5758,Mantres,Mantres,"Mandres,Mantres",34.6633,32.77132
5759,Yerakies,Yerakies,Yerakies,34.67522,32.77643
5763,Ploura,Ploura,Ploura,34.66037,32.76446
5764,Morosyja,Morosyja,Morosyja,34.67094,32.76607
5765,Amaloo,Amaloo,Amaloo,34.67683,32.76591
5842,Paramáli,Paramali,"Paramal,Paramali,Paramáli,Potamos tou Paramaliou,Παραμάλι",34.68604,32.80005
15904,Ilektroparagogikós Stathmós Dekéleias,Ilektroparagogikos Stathmos Dekeleias,"Dekeleia Power Station,Dekelia Elektrik Santrali,Dekelia Elektrik Santralı,Dekelya Elektrik Santrali,Dekelya Elektrik Santralı,Dhekelia Power Station,Ilektronparavovikos Stathmos Dekeleias,Ilektronparavovikós Stathmós Dekeleias,Ilektroparagogikos Stathmos Dekeleias,Ilektroparagogikós Stathmós Dekéleias,Ηλεκτροπαραγωγικός Σταθμός Δεκέλειας",34.9846,33.74516
15908,Knási,Knasi,"Knasi,Knási,Κνάσι",34.98898,33.72659
15910,Pogazoudhi,Pogazoudhi,,34.99715,33.70226
15915,Lambrines,Lambrines,,35.01204,33.72631
15918,Agía Marína,Agia Marina,"Agia Marina,Agía Marína,Ayia Marina,Αγία Μαρίνα",35.02029,33.73306
15919,Ágios Vasíleios,Agios Vasileios,"Agios Vasileios,Ayios Vasilios,Ágios Vasíleios,Άγιος Βασίλειος",35.025,33.7375
15920,Kokkinokamino,Kokkinokamino,,35.02226,33.70538
15922,Agios Ioanas,Agios Ioanas,"Agios Ioanas,Ayios Ioanas",35.03404,33.71975
15923,Chakkili,Chakkili,,35.04001,33.69727
15925,Pergamos Rural Central School,Pergamos Rural Central School,,35.04492,33.69772
15927,Katapetra,Katapetra,,35.05181,33.73751
15928,Arkangelos,Arkangelos,,35.05393,33.73699
15929,Landes,Landes,,35.05447,33.69532
19005,Pýrgos Xylofágou,Pyrgos Xylofagou,"Pyrgos Xylofagou,Pyrgos tou Xylophaghou,Pýrgos Xylofágou,Πύργος Ξυλοφάγου",34.94804,33.85339
19006,Xylophaghou Watch Tower,Xylophaghou Watch Tower,,34.95072,33.85578
19007,New Pyla,New Pyla,"New Pyla,Pile,Pirgos Tepesi,Pyla",34.95025,33.85506
19008,Mándres tou Xénou,Mandres tou Xenou,"Mandres tou Xenou,Mantres tou Xenou,Mándres tou Xénou,Μάνδρες του Ξένου",34.95799,33.85499
19009,Dhyo Syrmata,Dhyo Syrmata,,34.96458,33.86289
19029,Ayios Yioryis,Ayios Yioryis,,35.08028,33.88372
19109,Lakkos tou Hajidhmitri,Lakkos tou Hajidhmitri,,35.02677,33.81567
19113,Ayios Yeoryios Angonas,Ayios Yeoryios Angonas,,35.0072,33.80416
19114,Tandoullou,Tandoullou,,35.00406,33.80623
19115,Khalasmata,Khalasmata,,35.00199,33.83254
19116,Tératsos,Teratsos,"Teratsos,Tératsos,Τέρατσος",34.99621,33.82664
19117,Karvouna tou Mavrommati,Karvouna tou Mavrommati,,34.98865,33.81999
19118,Ambelotos,Ambelotos,,34.97833,33.82865
19119,Aloupotrypes,Aloupotrypes,,34.97987,33.80125
19120,Limni,Limni,,34.98045,33.78553
19121,Ayios Yeoryios Angonas,Ayios Yeoryios Angonas,,35.01163,33.79243
19122,Ormídeia,Ormideia,"Ormideia,Ormidhia Forest,Ormídeia,Ορμίδεια",35.00316,33.77414
19123,Xylotymbou Forest,Xylotymbou Forest,,35.03652,33.72921
19124,Ágios Geórgios,Agios Georgios,"Agios Georgios,Ayios Yeoryios Forest,Ágios Geórgios,Άγιος Γεώργιος",35.01928,33.7997
19125,Áchna,Achna,"Achna,Akhna Forest,Athna Forest,Áchna,Άχνα",35.03218,33.76658
19126,Agía Theodóra,Agia Theodora,"Agia Theodora,Agía Theodóra,Ayia Theodhora,Αγία Θεοδώρα",35.0375,33.78333
19127,Panagía tis Trachiás,Panagia tis Trachias,"Panagia tis Trachias,Panagía tis Trachiás,Panayia tis Trashas,Παναγία της Τραχιάς",35.0376,33.78337
19128,Ágios Vlásios,Agios Vlasios,"Agios Vlasios,Ayios Vlasios,Ágios Vlásios,Άγιος Βλάσιος",35.04583,33.7875
145948,Cape Zevgari,Cape Zevgari,"Akrotirio Zevgari,Akrotirion Zevgari,Akrotírio Zevgári,Akrotírion Zevgári,Cape Zevgari,Cape Zeygari,Ikiz Burnu,Ikizler Burnu,Zevgari Burnu,Zevghari,İkiz Burnu,İkizler Burnu,Ακρωτήριο Ζευγάρι",34.5671,32.93307
145972,Xylophaghou,Xylophaghou,"Ksilofago,Ksilofagu,Ksilofogo,Xylophaghou,Xylophago,Xylophagou",34.97917,33.85
146000,Vatha,Vatha,"Vatha,Vatha Rocks",34.56963,32.97162
146033,Trachóni,Trachoni,"Kayakale,Trachoni,Trachóni,Trahon,Trahoni,Trakhoni,Τραχώνι",34.65756,32.96534
146050,Symvoulos Chiftlik,Symvoulos Chiftlik,"Simvulo,Symboulo Chiftlik,Symvoulo,Symvoulo Chiftlik,Symvoulos,Symvoulos Chiftlik,Sýmboulo Chiftlík,Sýmvoulos,Σύμβουλος",34.68353,32.81688
146098,Salt Lake,Salt Lake,"Aliki,Alikí,Alyki,Alykí,Salt Lake,Tuz Golu,Tuz Gölü,Αλυκή",34.6178,32.96995
146109,Akrotírio Pýla,Akrotirio Pyla,"Akrotirio Pyla,Akrotirion Pyla,Akrotírio Pýla,Akrotírion Pýla,Cape Pyla,Dades Promontory,Pile Burnu,Throni,Ακρωτήριο Πύλα",34.94281,33.85683
146168,Phasouri,Phasouri,"Fasouri,Fasoúri,Fasur,Fasuri,Phasouri,Φασούρι",34.63398,32.93808
146206,Farkonias,Farkonias,"Farkonias,Pharkania River",34.66459,32.79251
146430,Koúris,Kouris,"Kouris,Kouris Potamos,Kouris Potamós,Kouris River,Koúris,Kuri,Kuris Deresi,Κούρης",34.64596,32.89897
146584,Jubilee Shoal,Jubilee Shoal,,34.63152,32.77154
146601,Cape Gata,Cape Gata,"Akrotirio Gata,Akrotirion Gata,Akrotírio Gáta,Akrotírion Gáta,Cape Gata,Curias Promontory,Dogan Burnu,Doğan Burnu,Gata Burnu,Ακρωτήριο Γάτα",34.56749,33.03588
146625,Órmos Avdímou,Ormos Avdimou,"Duzkaya Limani,Düzkaya Limanı,Evdhimou Bay,Evdhimou Harbour,Evdimi Limani,Evdimi Limanı,Ormos Avdimou,Órmos Avdímou,Όρμος Αυδήμου",34.65467,32.76399
146626,Evdhimou,Evdhimou,"Avdimou,Avdímou,Evdhimou,Evdhimou River,Evdim,Αυδήμου",34.65735,32.76171
146630,Episkopi Cantonment,Episkopi Cantonment,"Episkopi,Episkopi British Cantonment,Episkopi Cantonment,Episkopí,Επισκοπή",34.6764,32.83569
146631,Kólpos Episkopís,Kolpos Episkopis,"Episkopi Bay,Episkopi Gulf,Episkopi Korfezi,Episkopi Körfezi,Kolpos Episkopis,Kólpos Episkopís,Piskobu Korfezi,Piskobu Körfezi,Yalova Korfezi,Yalova Körfezi,Κόλπος Επισκοπής",34.63333,32.83333
146663,Dhekelia,Dhekelia,"Dekeleia,Dekelia Ingiliz Ussu,Dekelia İngiliz Üssü,Dekéleia,Dhekelia,Dhekelia Sovereign Base Area,Dhekelia United Kingdom Base,Δεκέλεια",34.99541,33.74563
146664,Dhekelia Cantonment,Dhekelia Cantonment,"Dekeleia,Dekelia,Dhekelia Cantonment,Dhekhelia,Dikelia,Dikelya",34.99655,33.73391
146671,Kourion,Kourion,"Curium,Kourion,Kurion,Kurium",34.66667,32.88333
146709,Ágios Nikólaos,Agios Nikolaos,"Agios Nikolaos,Ajos-Nikolaos,Akbulut,Ayios Nikolaos,Aynikola,Yamackoy,Yamaçköy,Ágios Nikólaos,Άγιος Νικόλαος,Айос-Николаос",35.08904,33.8896
146713,Ágios Nikólaos,Agios Nikolaos,"Agios Nikolaos,Ayios Nikolaos,Ágios Nikólaos,Άγιος Νικόλαος",35.09384,33.89707
146836,Akrotiri,Akrotiri,"Akrotiri,Akrotiri Ingiliz Ussu,Akrotiri Sovereign Base Area,Akrotiri İngiliz Üssü,Ingiliz Akrotiri Ussu,İngiliz Akrotiri Üssü,Ακρωτήρι",34.58341,32.98034
146837,Akrotiri,Akrotiri,"Akrotiri,Akrotiri Peninsula,Ακρωτήρι",34.62929,32.96717
146838,Kólpos Akrotíriou,Kolpos Akrotiriou,"Agrotur Korfezi,Akrotiri Bay,Akrotiri Korfezi,Akrotiri Körfezi,Akrotori Gulf,Ağrotur Körfezi,Kolpos Akrotiriou,Kólpos Akrotíriou,Limasol Korfezi,Limasol Körfezi,Limassol Bay,Κόλπος Ακρωτήριου",34.63333,33.08333
146839,Akrotiri,Akrotiri,"Agrotur,Akrotiri,Akrotirion,Ağrotur,Ακρωτήρι",34.60088,32.95536
413152,Kingsfield Airstrip,Kingsfield Airstrip,"King Havaalani,King Havaalanı,Kingsfield Airstrip",35.01365,33.71421
414604,Phasouri Chiftlik,Phasouri Chiftlik,,34.64583,32.93333
414605,Akrotiri Airfield,Akrotiri Airfield,"AKT,Agrotur Havaalani,Akrotiri Airfield,Ağrotur Havaalanı,Diavlos Akrotiriou,Díavlos Akrotiríou,LCRA",34.59012,32.98942
414607,Lady’s Mile Beach,Lady's Mile Beach,,34.63333,33.00417
414628,Four Mile Crossing,Four Mile Crossing,,35.07083,33.825
414630,Pyla Range Area,Pyla Range Area,,34.95139,33.86667
414650,Vrysoules,Vrysoules,,35.1,33.88333
2633322,Vale of White Horse,Vale of White Horse,"Vale of White Horse,White Horse Vale",51.61667,-1.51667
2633323,Zone Point,Zone Point,"Zone Point,Zoze Point",50.13333,-5.01667
2633324,Zennor,Zennor,Zennor,50.19057,-5.56614
2633325,Zelah,Zelah,,50.32332,-5.07897
2633326,Zeals,Zeals,"Zeal,Zeals",51.08558,-2.3123
2633327,Zeal Monachorum,Zeal Monachorum,Zeal Monachorum,50.82117,-3.81898
2633328,Ythsie,Ythsie,,57.36667,-2.18333
2633329,River Ythan,River Ythan,River Ythan,57.3,-2
2633330,Afon Ystwyth,Afon Ystwyth,"Afon Ystwyth,River Ystwith,Ystwyth,Ystwyth River",52.40559,-4.08932
2633331,Ystradowen,Ystradowen,Ystradowen,51.49056,-3.42194
2633332,Ystrad Mynach,Ystrad Mynach,,51.64276,-3.2362
2633333,Ystrad-Meurig,Ystrad-Meurig,"Ystrad-Meurig,Ystradmeuric",52.28333,-3.91667
2633334,Ystradgynlais,Ystradgynlais,"Ystradgunlais,Ystradgynlais",51.76667,-3.76667
2633335,Ystrad-ffin,Ystrad-ffin,"Capel Ystradffin,Ystrad-ffin",52.1,-3.76667
2633336,Ystradfellte,Ystradfellte,Ystradfellte,51.80897,-3.55299
2633337,Ystalyfera,Ystalyfera,"Ystalfera,Ystalyfera",51.76716,-3.78082
2633338,Yspytty-Ystwyth,Yspytty-Ystwyth,,52.33333,-3.86667
2633339,Ysbyty Ifan,Ysbyty Ifan,"Yspytty Evan,Yspytty-Ifan",53.01667,-3.73333
2633340,Yspytty Cynfyn,Yspytty Cynfyn,"Yspytty Cyfyn,Yspytty Cynfyn",52.4,-3.83333
2633341,Yr Eifl Head,Yr Eifl Head,,52.98333,-4.46667
2633342,Yr Eifl,Yr Eifl,"Rivel Mountain,The Rivals,Yr Eifl",52.98333,-4.43333
2633343,Yr Aran,Yr Aran,Yr Aran,53.03333,-4.08333
2633344,Yoxford,Yoxford,Yoxford,52.26819,1.50681
2633345,Yoxall,Yoxall,Yoxall,52.76659,-1.79068
2633346,Youlgreave,Youlgreave,,53.17399,-1.69044
2633347,Yorton,Yorton,Yorton,52.80921,-2.73854
2633348,Yorkshire Dales National Park,Yorkshire Dales National Park,"Yorkshire Dales National Park,yorkshire dales",54.26667,-2.08333
2633349,Yorkshire,Yorkshire,"Conteth Evrek,Eoferwicscir,Eoferwicscīr,Isuria,Jorkshir,Jorksiro,Jorkŝiro,Swydd Efrog,York,Yorkshire,Yorkshire konderria,yarkshayr,yokeusyeo,yokusha,yorkasayara,yue ke jun,ywrkshayr,ywrqsyyr,yxrkh chex r,Йоркшир,יורקשייר,يوركشاير,یارکشائر,यॉर्कशायर,ಯಾರ್ಕ್‌ಷೈರ್,ยอร์คเชอร์,იორკშირი,ヨークシャー,約克郡,요크셔",54,-1.5
2633350,York Road Station,York Road Station,York Street Station,54.62304,-5.92067
2633351,City of York,City of York,"YOR,York,York City",53.96396,-1.09142
2633352,York,York,"Aebura,Eabhrac,Eabhraig,Eboracum,Efrog,Eoforwic,Everoui,Evrek,Giork,Gorad Jork,Jork,Jorka,Jorkas,Jorvik,Jórvík,QQY,York,yark,yokeu,yoku,yorka,yue ke,ywrk,ywrq,yxrk,Évèroui,Γιορκ,Јорк,Горад Ёрк,Йорк,Յորք,יורק,يورك,یارک,یورک,یۆرک,यॉर्क,யார்க்,ยอร์ก,იორკი,ヨーク,約克,요크",53.95763,-1.08271
2633353,Yons Nab,Yons Nab,,54.24111,-0.33861
2633354,Yokefleet,Yokefleet,,53.70805,-0.75738
2633355,Yockleton,Yockleton,Yockleton,52.68547,-2.88917
2633357,Ynys Lochtyn,Ynys Lochtyn,"Ynys Fach,Ynys Lochtyn,Yuys Fach",52.16667,-4.46667
2633359,Y Llethr,Y Llethr,"Llethr,Y Lethr,Y Llethr",52.81667,-4
2633360,Yinstay Head,Yinstay Head,,58.98333,-2.85
2633361,Yinstay Bay,Yinstay Bay,,58.98333,-2.83333
2633362,Skerry of Yinstay,Skerry of Yinstay,"Skerry of Yinstay,Yinstay Skerrys",58.98333,-2.85
2633363,Yiewsley,Yiewsley,,51.51326,-0.47297
2633364,Y Garn,Y Garn,Y Garn,52.78333,-3.93333
2633365,Yewbarrow,Yewbarrow,Yewbarrow,54.46625,-3.27624
2633366,Yetminster,Yetminster,Yetminster,50.89579,-2.57959
2633367,Yetlington,Yetlington,,55.3819,-1.96856
2633368,Yetholm Loch,Yetholm Loch,Yetholm Loch,55.55,-2.31667
2633369,Yes Tor,Yes Tor,Yes Tor,50.68333,-4.01667
2633370,Yerbeston,Yerbeston,,51.746,-4.80767
2633371,Yeovilton,Yeovilton,YEO,51.00359,-2.64898
2633372,Yeovil Junction,Yeovil Junction,YVJ,50.9247,-2.6132
2633373,Yeovil,Yeovil,"Giuela,Jeovil',Jouvil,Jouvilis,Yeovil,yobil,Йеовиль,Йоувил,요빌",50.94159,-2.63211
2633374,Congresbury Yeo,Congresbury Yeo,"Congresbury Yeo,River Yeo",51.39611,-2.91111
2633375,Yeoford,Yeoford,,50.77607,-3.7273
2633376,River Yeo,River Yeo,,51.08333,-4.06667
2633377,River Yeo,River Yeo,,51.03167,-2.82167
2633378,River Yeo,River Yeo,,51.01667,-3.83333
2633379,River Yeo,River Yeo,,51,-4.2
2633380,River Yeo,River Yeo,River Yeo,50.86667,-3.81667
2633381,Yelverton,Yelverton,"Yelverton,Yervilton",52.56667,1.36667
2633382,Yelverton,Yelverton,,50.4929,-4.08382
2633383,Yelvertoft,Yelvertoft,Yelvertoft,52.37335,-1.12154
2633384,Yell Sound,Yell Sound,Yell Sound,60.53333,-1.25
2633385,Yelling,Yelling,Yelling,52.2462,-0.15321
2633386,Yell Baa,Yell Baa,,60.48333,-1.1
2633387,Yell,Yell,"Gell,Jell,Yell,Yell Island,ieru dao,ye er dao,yl,Γελλ,Йелл,יל,یل,イエル島,耶爾島",60.6,-1.1
2633388,Yelford,Yelford,Yelford,51.73333,-1.48333
2633389,Yelden,Yelden,,52.29299,-0.51584
2633390,Yedingham,Yedingham,Yedingham,54.2,-0.61667
2633391,Yeavering Bell,Yeavering Bell,Yeavering Bell,55.55,-2.1
2633392,Yeaveley,Yeaveley,,52.96017,-1.72278
2633393,Yearby,Yearby,Yearby,54.58042,-1.07254
2633394,Yealmpton,Yealmpton,Yealmpton,50.34856,-3.99877
2633395,Yealm Head,Yealm Head,,50.3,-4.06667
2633396,River Yealm,River Yealm,River Yealm,50.35,-4
2633397,Yeadon,Yeadon,,53.86437,-1.68743
2633398,Yazor,Yazor,Yazor,52.11667,-2.86667
2633399,Yaxley,Yaxley,Yaxley,52.51768,-0.25852
2633400,Yaxley,Yaxley,Yaxley,52.3228,1.11065
2633401,Yaxham,Yaxham,,52.65567,0.96598
2633402,Yatton Keynell,Yatton Keynell,Yatton Keynell,51.48612,-2.19337
2633403,Yatton,Yatton,,51.96667,-2.53333
2633404,Yatton,Yatton,"Jatton,Yatton,Яттон",51.38839,-2.82353
2633405,Yatesbury,Yatesbury,"Yatesbury,Yatsbury",51.44195,-1.90796
2633406,Yate,Yate,,51.54074,-2.41839
2633407,River Yarty,River Yarty,,50.76667,-3.01667
2633408,Yarrow Water,Yarrow Water,"Yarrow,Yarrow Water",55.51667,-2.9
2633409,Loch of Yarrows,Loch of Yarrows,"Loch of Yarrows,Yarehouse Loch",58.38333,-3.18333
2633410,Yarrow,Yarrow,,55.51667,-3.05
2633411,Yarpole,Yarpole,Yarpole,52.27972,-2.78134
2633412,Yarnton,Yarnton,Yarnton,51.80986,-1.30694
2633413,Yarmouth Roads,Yarmouth Roads,"Yarmouth Road,Yarmouth Roads",52.58333,1.78333
2633414,Yarmouth,Yarmouth,"Jarmut,Yarmouth,Yarmouth pa Isle of Wight,Yarmouth på Isle of Wight,yameoseu,Ярмут,야머스",50.70529,-1.49929
2633415,Yarm,Yarm,"Yarm,Yarm on Tees",54.50364,-1.35793
2633416,Yarlington,Yarlington,,51.0611,-2.49325
2633417,River Yare,River Yare,River Yare,52.6,1.75
2633418,Yardley Hastings,Yardley Hastings,Yardley Hastings,52.2055,-0.73488
2633419,Yardley,Yardley,,52.46662,-1.81028
2633420,Yarcombe,Yarcombe,,50.86828,-3.07425
2633421,Yarburgh,Yarburgh,,53.41718,0.02954
2633422,Yapton,Yapton,Yapton,50.8209,-0.613
2633423,Yanworth,Yanworth,,51.82196,-1.89186
2633424,Yalding,Yalding,Yalding,51.22387,0.4292
2633425,Yair House,Yair House,"Yair,Yair House",55.58333,-2.86667
2633426,Yafforth,Yafforth,,54.34526,-1.47357
2633427,Wyvis Lodge,Wyvis Lodge,,57.71667,-4.53333
2633428,Glas Leathad Mor,Glas Leathad Mor,Ben Wyvis,57.67912,-4.57922
2633429,Wyverstone,Wyverstone,,52.27051,0.99033
2633430,Wyton,Wyton,,53.7824,-0.21713
2633431,Wyton,Wyton,,52.33333,-0.11667
2633432,Wythenshawe,Wythenshawe,"Wythenshawe,Wythenshawe Estate",53.38027,-2.2654
2633433,Wythburn,Wythburn,,54.50678,-3.04278
2633434,Wytham,Wytham,Wytham,51.77496,-1.31252
2633435,Wysall,Wysall,,52.84011,-1.10361
2633436,Wyre Sound,Wyre Sound,"Viera Sound,Wyre Sound",59.11667,-3
2633437,Wyre Forest District,Wyre Forest District,,52.35,-2.36667
2633438,Wyre Forest,Wyre Forest,Wyre Forest,52.38333,-2.35
2633439,Wyre District,Wyre District,,53.91667,-2.96667
2633440,River Wyre,River Wyre,River Wyre,53.89857,-3.00098
2633441,Afon Wyre,Afon Wyre,"Afon Wyre,River Wayrai,River Wyrai,Wyre",52.31667,-4.16667
2633442,Wyre,Wyre,"Viera,Wyre",59.11667,-2.96667
2633443,Wraysbury,Wraysbury,"Wraysbury,Wyrardisbury",51.45863,-0.5403
2633444,Wynnstay,Wynnstay,,52.96667,-3.03333
2633445,Wymondham,Wymondham,,52.75978,-0.74055
2633446,Wymondham,Wymondham,,52.57012,1.11623
2633447,Wymington,Wymington,,52.26881,-0.60266
2633448,Wymeswold,Wymeswold,"Wimeswould,Wymeswold",52.80536,-1.11288
2633449,River Wylye,River Wylye,,51.08333,-1.85
2633450,Wylye,Wylye,Wylye,51.13715,-1.98946
2633451,Wylfa Head,Wylfa Head,"Mynyddy Wylfa,Wulfa Head,Wylfa Head",53.41667,-4.46667
2633452,Wylde Green,Wylde Green,Wylde Green,52.53333,-1.81667
2633453,Wylam,Wylam,Wylam,54.97654,-1.82187
2633454,Wyke Regis,Wyke Regis,,50.59112,-2.47327
2633455,Wyken,Wyken,Wyken,52.41667,-1.46667
2633456,Wykeham,Wykeham,Wykeham,54.23333,-0.51667
2633457,Wyke,Wyke,Wyke,53.73333,-1.76667
2633458,River Wye,River Wye,"Gwy,River Wye",53.18333,-1.61667
2633459,River Wye,River Wye,"Afon Gwy,River Wye",51.61333,-2.66056
2633460,Wye,Wye,,51.18249,0.93678
2633461,Wyddial,Wyddial,,51.96452,-0.00369
2633462,Wycombe,Wycombe,,51.58333,-0.9
2633463,Wycliffe,Wycliffe,"Wycliffe,Wyclitffe",54.52278,-1.81824
2633464,Wyck Rissington,Wyck Rissington,"Rissington Wick,Wyck Rissington",51.89218,-1.72386
2633465,Wych Cross,Wych Cross,"Wych Cross,Wytch Cross",51.0647,0.0218
2633466,Wybunbury,Wybunbury,,53.04542,-2.45207
2633467,Wyberton,Wyberton,Wyberton,52.95164,-0.04137
2633468,Wrynose Pass,Wrynose Pass,"Wrynose Gap,Wrynose Pass",54.41667,-3.11667
2633471,Wroxton,Wroxton,Wroxton,52.07282,-1.39709
2633472,Wroxham,Wroxham,,52.70445,1.40582
2633473,Wroxeter,Wroxeter,Wroxeter,52.67042,-2.64759
2633474,Wroxall,Wroxall,,52.33791,-1.66898
2633475,Wroxall,Wroxall,,50.61625,-1.22292
2633476,Wroughton,Wroughton,,51.52411,-1.79559
2633477,Wrotham Park,Wrotham Park,,51.66667,-0.18333
2633478,Wrotham,Wrotham,,51.30856,0.30899
2633479,Wroot,Wroot,,53.52336,-0.92872
2633480,Wrockwardine,Wrockwardine,Wrockwardine,52.70449,-2.55678
2633481,Writtle,Writtle,Writtle,51.72906,0.42938
2633482,Wrington,Wrington,,51.36173,-2.76319
2633483,Wrinehill,Wrinehill,,53.02072,-2.36943
2633484,Wrexham,Wrexham,"Bwrdeistref Sirol Wrecsam,Co-chorp Coontae Wrecsam,County Borough of Wrexham,Kontelezh Wrecsam,Rehksem,Reksamas,Reksem,Reksum,WRX,Wrecsam,Wrexham,Wrexham Coonty Burgh,Wrexham County Borough,Wrexham Maelor,Wrexham grevskapsdistrikt,legseom ju,rekusamu,Рексем,Рексъм,Рэксем,רקסהאם,レクサム,렉섬 주",53,-3
2633485,Wrexham,Wrexham,"Reksamas,Reksem,Reksum,Rexam,Wrecsam,Wreksam,Wrexham,legseom,lei ke se mu,rekusamu,Ρέξαμ,Рексем,Рексъм,רקסהאם,レクサム,雷克瑟姆,렉섬",53.04664,-2.99132
2633486,Wrestlingworth,Wrestlingworth,,52.11041,-0.16342
2633487,Wressell,Wressell,"Wressell,Wressle",53.77373,-0.92474
2633488,Wrentham,Wrentham,Wrentham,52.38367,1.66692
2633489,Wrenbury,Wrenbury,Wrenbury cum Frith,53.0251,-2.60742
2633490,The Wrekin,The Wrekin,The Wrekin,52.68333,-2.51667
2633491,Wreigh Burn,Wreigh Burn,,55.3,-1.95
2633492,Wrecclesham,Wrecclesham,,51.19859,-0.81281
2633493,Wreay,Wreay,,54.83191,-2.88046
2633494,River Wreak,River Wreak,,52.68333,-1.08333
2633495,Wrea Green,Wrea Green,,53.77651,-2.91573
2633496,Wray Castle,Wray Castle,Wray Castle,54.38333,-2.95
2633497,Wray,Wray,,54.10275,-2.60888
2633498,Wraxall,Wraxall,Wraxall,51.44417,-2.73139
2633499,Wrawby,Wrawby,Wrawby,53.56672,-0.46194
2633500,Cape Wrath,Cape Wrath,"Am Parbh,An Carbh,Cape Wrath",58.62606,-4.99846
2633501,Wrangle,Wrangle,,53.03935,0.12989
2633502,Wrangaton,Wrangaton,,50.40742,-3.86093
2633503,Wramplingham,Wramplingham,Wramplingham,52.61437,1.12072
2633504,Wragby,Wragby,Wragby,53.28333,-0.3
2633505,Wrafton,Wrafton,Wrafton,51.1,-4.15
2633506,Wrabness,Wrabness,,51.93335,1.16118
2633507,The Wra,The Wra,"The Wra,Three Stone Oar",50.16667,-5.66667
2633508,Wouldham,Wouldham,,51.34986,0.45816
2633509,The Would,The Would,,52.9,1.63333
2633510,Wotton Underwood,Wotton Underwood,"Wotton,Wotton Underwood",51.83822,-1.00293
2633511,Wotton-under-Edge,Wotton-under-Edge,Wotton-under-Edge,51.63242,-2.34512
2633512,Wotton,Wotton,,51.21723,-0.3901
2633513,Worton,Worton,,51.31611,-2.04111
2633514,Wortley,Wortley,,53.48333,-1.53333
2633515,Worting,Worting,,51.26447,-1.13656
2633516,Worthy Down Halt,Worthy Down Halt,"Worthy Down Halt,Worthy Down Platform",51.09824,-1.31081
2633517,Worthy Down,Worthy Down,,51.11667,-1.35
2633518,Worth Matravers,Worth Matravers,"Worth,Worth Matravers",50.59731,-2.03743
2633519,Worthington,Worthington,,52.78034,-1.39767
2633520,Worthing,Worthing,Worthing,52.73333,0.95
2633521,Worthing,Worthing,"Vorting,Worthing,wajingu,wwrtyng,Вортинг,وورتینگ,ワージング",50.81795,-0.37538
2633522,Worthenbury,Worthenbury,,53.00915,-2.86588
2633523,Worthen,Worthen,,52.63577,-2.99514
2633524,Wortham,Wortham,Wortham,52.35311,1.05769
2633525,Worth,Worth,,51.25633,1.3484
2633526,Worth,Worth,,51.11212,-0.14686
2633527,Worsthorne,Worsthorne,"Worsthorn,Worsthorne",53.78759,-2.19105
2633528,Worstead,Worstead,,52.7833,1.41294
2633529,Worsley,Worsley,Worsley,53.499,-2.38079
2633530,Worsbrough Bridge,Worsbrough Bridge,,53.52968,-1.4694
2633531,Worsborough,Worsborough,,53.5298,-1.47243
2633532,Worplesdon,Worplesdon,,51.27566,-0.60717
2633533,Wormshill,Wormshill,,51.28538,0.6972
2633534,Worms Head,Worms Head,"Helvick Head,Penrhyn-gwyr,Worms Head",51.565,-4.32528
2633535,Wormley,Wormley,,51.7324,-0.0242
2633536,Wormleighton,Wormleighton,Wormleighton,52.17893,-1.34514
2633537,Wormit Bay,Wormit Bay,,56.41667,-2.98333
2633538,Wormit,Wormit,Wormit,56.42541,-2.97774
2633539,Wormington,Wormington,,52.02636,-1.94122
2633540,Worminghall,Worminghall,"Warminghall,Worminghall",51.77043,-1.07365
2633541,Wormingford,Wormingford,,51.94876,0.80861
2633542,Wormegay,Wormegay,Wormegay,52.67815,0.45782
2633544,Worlingworth,Worlingworth,,52.27026,1.26995
2633545,Worlington,Worlington,,52.33505,0.48748
2633546,Worlingham,Worlingham,Worlingham,52.45054,1.59456
2633547,Worleston,Worleston,,53.10495,-2.51229
2633548,Worle,Worle,,51.36033,-2.9259
2633549,Worlaby,Worlaby,,53.6,-0.46667
2633550,Worlaby,Worlaby,,53.26667,0.01667
2633551,Worksop,Worksop,"Uorksop,Uurksop,Worksop,Уорксоп,Уърксоп",53.30182,-1.12404
2633552,Workington Bank,Workington Bank,,54.65,-3.63333
2633553,Workington,Workington,"Uurkingtun,Уъркингтън",54.6425,-3.54413
2633554,Head of Work,Head of Work,"Head of Work,Workhead",59,-2.9
2633555,Bay of Work,Bay of Work,,59,-2.9
2633556,Worfield,Worfield,,52.55806,-2.35765
2633557,Wordwell,Wordwell,Wordwell,52.31598,0.68106
2633558,Wordsley,Wordsley,"Wordesley,Wordsley",52.48121,-2.16503
2633559,Worcestershire Beacon,Worcestershire Beacon,Worcestershire Beacon,52.1,-2.33333
2633560,Worcestershire,Worcestershire,"County of Worcestershire,WOR,Worcester,Worcestershire,Worcs",52.16667,-2.16667
2633561,Worcester Park,Worcester Park,"Old Malden,Worcester Park",51.37992,-0.24445
2633562,Worcester and Birmingham Canal,Worcester and Birmingham Canal,"Worcester Birmingham Canal,Worcester and Birmingham Canal",52.48333,-1.91667
2633563,Worcester,Worcester,"Caerwrangon,City of Worcester,Gorad Vustehr,Ustur,Vigornia,Vuster,Vusteris,Wiogoraceastre,Worcester,useuteo,usuta,vuster,wrkstr,wu si te,wurs texr,wwstr,Вустер,Горад Вустэр,Устър,Վուսթեր,ورکستر,وورسسٹر,ووستر,วุร์สเตอร์,ウスター,伍斯特,우스터",52.18935,-2.22001
2633564,Worbarrow Bay,Worbarrow Bay,"Warbarrow Bay,Worbarrow Bay",50.61667,-2.2
2633565,Wootton Wawen,Wootton Wawen,,52.26812,-1.7806
2633566,Wootton Rivers,Wootton Rivers,,51.3677,-1.71869
2633567,Wootton Glanville,Wootton Glanville,"Wooton Glanville,Wootton Glanville",50.86667,-2.45
2633568,Wootton Fitzpaine,Wootton Fitzpaine,"Wootton,Wootton Fitzpaine",50.75697,-2.89919
2633569,Wootton Creek,Wootton Creek,Wootton Creek,50.73333,-1.21667
2633570,Wootton Bridge,Wootton Bridge,,50.72445,-1.23691
2633571,Royal Wootton Bassett,Royal Wootton Bassett,"Royal Wootton Bassett,Wooton Bassett,Wootton Bassett",51.5419,-1.9045
2633572,Wootton,Wootton,,53.61667,-0.36667
2633573,Wootton,Wootton,Wootton,53,-1.85
2633574,Wootton,Wootton,,52.20166,-0.88517
2633575,Wootton,Wootton,,52.09525,-0.53494
2633576,Wootton,Wootton,,51.70661,-1.31561
2633577,Wootton,Wootton,"Wooton,Wootton",51.1738,1.1794
2633578,Wootton,Wootton,,50.72847,-1.23536
2633579,Wooton Saint Lawrence,Wooton Saint Lawrence,Wooton St Lawrence,51.27413,-1.15144
2633580,Woore,Woore,Woore,52.97701,-2.40235
2633581,Wooperton,Wooperton,,55.47668,-1.93685
2633582,Woonton,Woonton,Woonton,52.16667,-2.95
2633583,Woolwich,Woolwich,"Vulidzh,Vulis,Vuliс,o'ulica,ullichi,wu li qi,Вулидж,وول‌ویچ,ওউলিচ,伍利奇,울리치",51.491,0.0648
2633584,Woolverton,Woolverton,,51.28444,-2.29778
2633585,Woolverstone,Woolverstone,,51.99984,1.1856
2633586,Woolton,Woolton,Woolton,53.37401,-2.87
2633587,Wooltack Point,Wooltack Point,,51.73778,-5.25194
2633588,Woolstone,Woolstone,,52.03333,-0.71667
2633589,Woolstone,Woolstone,"Woolston,Woolstone",51.97043,-2.05955
2633590,Woolstone,Woolstone,,51.58806,-1.57783
2633591,Woolston,Woolston,,50.89305,-1.37801
2633592,Woolsthorpe,Woolsthorpe,,52.88333,-0.75
2633593,Woolstaston,Woolstaston,,52.58083,-2.81001
2633594,Woolsington Hall,Woolsington Hall,,55.01667,-1.68333
2633595,Woolpit,Woolpit,,52.22454,0.88826
2633596,Woolpack,Woolpack,,53.05,0.56667
2633597,Woolpack,Woolpack,,51.41667,1.2
2633598,Woolley,Woolley,,53.61339,-1.51457
2633599,Woollen Burn,Woollen Burn,"Woolen Burn,Woollen Burn",55.6,-4.13333
2633600,Woolland,Woolland,,50.86189,-2.31808
2633601,Woolhouse Rocks,Woolhouse Rocks,"Woolhouse,Woolhouse Rocks",51.65861,-4.66222
2633602,Woolhope,Woolhope,Woolhope,52.018,-2.56666
2633603,Woolfardisworthy,Woolfardisworthy,"Woolfardisworthy,Woolsery",50.96465,-4.37702
2633604,Woolfardisworthy,Woolfardisworthy,Woolfardisworthy,50.86667,-3.66667
2633605,Wooler Water,Wooler Water,Wooler Water,55.56667,-2
2633606,Wooler,Wooler,Wooler,55.54755,-2.01186
2633607,Woolaston,Woolaston,Woolaston,51.69101,-2.59946
2633608,Woolacombe,Woolacombe,Woolacombe,51.17296,-4.20689
2633609,Wool,Wool,Wool,50.67966,-2.2189
2633610,Wookey,Wookey,,51.20972,-2.69225
2633611,Woofferton,Woofferton,"Wooferton,Woofferton",52.3126,-2.70515
2633612,Wood Wick,Wood Wick,,60.78333,-0.93333
2633613,Wood Wick,Wood Wick,,59.1,-3.05
2633614,Wood Walton,Wood Walton,,52.41226,-0.21569
2633615,Woodville,Woodville,,52.76918,-1.53448
2633617,Woodton,Woodton,,52.49548,1.37617
2633618,Woodstock,Woodstock,"Gorad Vudstak,Udstok,Vudstok,Woodstock,Woodstock i Oxfordshire,udeuseutog,wu de si tuo ke,Вудсток,Горад Вудстак,Удсток,伍德斯托克,우드스톡",51.8485,-1.35132
2633620,Woodside,Woodside,,57.35,-4.2
2633621,Woodside,Woodside,Woodside,56.51667,-3.28333
2633622,Woodside,Woodside,,52.5,-2.11667
2633623,Woodsford,Woodsford,Woodsford,50.71364,-2.33747
2633624,Woodsetts,Woodsetts,Woodsetts,53.34804,-1.17204
2633625,Woodseats,Woodseats,,53.33403,-1.48654
2633626,Woodrising,Woodrising,,52.59072,0.93363
2633627,Woodplumpton,Woodplumpton,,53.8073,-2.75915
2633628,Wood Norton,Wood Norton,Wood Norton,52.81667,0.98333
2633629,Woodnorton,Woodnorton,"Woodmorton Hall,Woodnorton",52.11667,-2
2633630,Woodnewton,Woodnewton,,52.53633,-0.47254
2633631,Woodmancote,Woodmancote,,50.91667,-0.24565
2633632,Woodley,Woodley,Woodley,53.43333,-2.1
2633633,Woodley,Woodley,,51.45,-0.88333
2633634,Woodlesford,Woodlesford,Woodlesford,53.75619,-1.45513
2633635,Woodleigh,Woodleigh,,50.32774,-3.7486
2633636,Woodland,Woodland,,54.63331,-1.88922
2633637,Woodland,Woodland,,50.5,-3.7
2633638,Woodhurst,Woodhurst,Woodhurst,52.36667,-0.06667
2633639,Woodhouse Mill,Woodhouse Mill,,53.36407,-1.33776
2633640,Woodhouse,Woodhouse,,53.35762,-1.37278
2633641,Woodhouse,Woodhouse,,52.73369,-1.20283
2633642,Woodhorn,Woodhorn,,55.19348,-1.53329
2633643,Woodhill House,Woodhill House,"Woodhill,Woodhill House",56.66667,-3.46667
2633644,Woodhead Station,Woodhead Station,,53.4955,-1.83334
2633645,Woodhead Reservoir,Woodhead Reservoir,Woodhead Reservoir,53.48333,-1.86667
2633647,Woodham Mortimer,Woodham Mortimer,,51.70911,0.6233
2633649,Woodham Ferrers,Woodham Ferrers,,51.6667,0.59798
2633650,Woodham,Woodham,,54.63333,-1.55
2633651,Woodhall Spa,Woodhall Spa,Woodhall Spa,53.15215,-0.21453
2633652,Woodhall Loch,Woodhall Loch,,54.98333,-4.08333
2633653,Wood Green,Wood Green,"wwd gryn,وود گرین",51.6,-0.11667
2633654,Woodford River,Woodford River,"Woodford,Woodford River",54.14861,-7.44833
2633655,Woodford Green,Woodford Green,Woodford Green,51.60938,0.02329
2633656,Woodford,Woodford,Woodford,53.33333,-2.16667
2633657,Woodford,Woodford,,52.38231,-0.58099
2633658,Woodford,Woodford,Woodford,51.6,0.01667
2633659,Woodford,Woodford,,51.11667,-1.83333
2633660,Woodfoot,Woodfoot,,55.28333,-3.41667
2633662,Wood Dalling,Wood Dalling,Wood Dalling,52.80042,1.09857
2633663,Woodcott,Woodcott,,51.29214,-1.37801
2633664,Woodcote,Woodcote,Woodcote,52.73333,-2.33333
2633665,Woodchurch,Woodchurch,Woodchurch,53.36667,-3.08333
2633666,Woodchurch,Woodchurch,,51.07605,0.77346
2633667,Woodchester,Woodchester,Woodchester,51.72155,-2.23286
2633669,Woodburn,Woodburn,,54.73333,-5.83333
2633670,Woodbridge Haven,Woodbridge Haven,,51.98333,1.4
2633671,Woodbridge,Woodbridge,"Vudbridzh,Woodbridge,Woodbridge i Suffolk,Вудбридж",52.09332,1.32042
2633672,Woodborough,Woodborough,,53.02319,-1.06029
2633673,Woodborough,Woodborough,,51.33333,-1.83333
2633674,Woodbank House,Woodbank House,"Woodbank,Woodbank House",54.98333,-6.7
2633675,Wooburn,Wooburn,,51.57888,-0.693
2633676,Wonston,Wonston,,51.15243,-1.32046
2633677,Wonersh,Wonersh,,51.19828,-0.54417
2633678,Wonastow,Wonastow,,51.7928,-2.76598
2633679,Womersley,Womersley,,53.66743,-1.20159
2633680,Womenswold,Womenswold,,51.20936,1.18704
2633681,Wombwell,Wombwell,Wombwell,53.52189,-1.39698
2633682,Wombridge,Wombridge,,52.70071,-2.45919
2633683,Wombourn,Wombourn,"Wombourn,Wombourne",52.53333,-2.18333
2633684,Wolviston,Wolviston,Wolviston,54.62333,-1.29946
2633685,Wolvey,Wolvey,,52.48626,-1.36935
2633686,Wolvesnewton,Wolvesnewton,,51.69338,-2.79104
2633687,Wolverton,Wolverton,,52.25828,-1.69859
2633688,Wolverton,Wolverton,,52.06246,-0.81659
2633689,Wolverton,Wolverton,,51.32375,-1.20867
2633690,Wolverley,Wolverley,Wolverley,52.41667,-2.25
2633691,Wolverhampton,Wolverhampton,"Goulverchampton,Heantun,Ulvurkhamptun,Vulvergempton,Vulverhamptonas,Vulverhempton,Vulverhemptona,Vulverkhempton,Wolverhampton,Wulfrunehantona,XVW,ulbeohaempeuteon,u~oruvu~ahanputon,wlwrhmptwn,wu er fu han pu dun,wwlbrhmptwn,wwlfrhambtwn,Γουλβερχάμπτον,Вулвергемптон,Вулверхемптон,Улвърхамптън,Վուլվերհեմպտոն,וואלווערהאמפטאן,וולברהמפטון,ولورهمپتون,وولفرهامبتون,وولورہیمپٹن,วุลเวอร์แฮมป์ตัน,ვულვერჰემპტონი,ウォルヴァーハンプトン,伍爾弗漢普頓,울버햄프턴",52.58547,-2.12296
2633692,Wolston,Wolston,,52.37717,-1.39544
2633693,Wolstanton,Wolstanton,,53.03001,-2.21608
2633694,Wolsingham,Wolsingham,,54.73085,-1.88319
2633695,Wollaston,Wollaston,Wollaston,52.7,-3
2633696,Wollaston,Wollaston,,52.45,-2.16667
2633697,Wollaston,Wollaston,,52.25794,-0.67038
2633698,Wolf Rock,Wolf Rock,Wolf Rock,49.95,-5.8
2633699,Wolford,Wolford,,52.00449,-1.63559
2633700,Wolfhamcote,Wolfhamcote,,52.27819,-1.23021
2633701,Wolferton Creek,Wolferton Creek,,52.86667,0.43333
2633702,Wolferton,Wolferton,Wolferton,52.82947,0.46145
2633703,Wolfelee,Wolfelee,"Wolfelee,Wolflee",55.36667,-2.65
2633704,The Wolds,The Wolds,,53.41667,-0.16667
2633705,Wold Newton,Wold Newton,,54.13333,-0.4
2633706,Wold Newton,Wold Newton,,53.45,-0.13333
2633707,Woldingham,Woldingham,,51.28527,-0.03372
2633708,Wokingham,Wokingham,"Uokingam,Uokingkhem,oking-eom,Уокингам,Уокингхем,오킹엄",51.4112,-0.83565
2633709,Woking,Woking,"Uoking,Uokinge,Vokingas,Woking,XWO,u~okingu,wo jin,Уокинг,Уокинге,ウォキング,沃金",51.31903,-0.55893
2633710,Woburn Sands,Woburn Sands,,52.01579,-0.64982
2633711,Woburn House,Woburn House,"Woburn,Woburn House",54.5941,-5.51857
2633712,Woburn,Woburn,,51.98865,-0.61903
2633713,Afon Wnion,Afon Wnion,"Afon Wnion,Wnion",52.75,-3.9
2633714,Wixford,Wixford,Wixford,52.18917,-1.87148
2633715,Wix,Wix,Wix,51.9123,1.14296
2633716,Wiveton,Wiveton,,52.94345,1.03885
2633717,Wivenhoe,Wivenhoe,"Winehoe,Wivenhoe,Wyvenhoe",51.85553,0.95796
2633718,Wivelsfield Green,Wivelsfield Green,,50.96313,-0.07133
2633719,Wivelsfield,Wivelsfield,Wivelsfield,50.96908,-0.09089
2633720,Wiveliscombe,Wiveliscombe,Wiveliscombe,51.04139,-3.31278
2633721,Witton le Wear,Witton le Wear,Witton le Wear,54.67565,-1.77387
2633723,Witton Gilbert,Witton Gilbert,Witton Gilbert,54.80572,-1.63686
2633724,Witton,Witton,,52.51667,-1.88333
2633725,Witton,Witton,Witton,52.83333,1.46667
2633726,Wittersham,Wittersham,,51.01394,0.70789
2633727,Wittering,Wittering,Wittering,52.60698,-0.44048
2633728,Wittenham,Wittenham,,51.63333,-1.21667
2633729,Witney,Witney,"Uitni,Witney,Уитни",51.7836,-1.4854
2633730,Witnesham,Witnesham,"Wirnesham,Witnesham",52.10507,1.1855
2633731,Witley,Witley,,51.14993,-0.64768
2633732,Withypool,Withypool,"Withypool,Withypoole",51.1075,-3.64944
2633733,Withyham,Withyham,Withyham,51.10118,0.13265
2633734,Withycombe,Withycombe,,51.16191,-3.40945
2633735,Withybrook,Withybrook,Withybrook,52.45292,-1.3611
2633736,Withnell,Withnell,,53.69333,-2.55636
2633737,Withleigh,Withleigh,,50.90083,-3.54881
2633738,Withington,Withington,,52.71667,-2.6
2633739,Withington,Withington,,52.1,-2.63333
2633740,Withington,Withington,Withington,51.83333,-1.95
2633741,Withiel,Withiel,Withiel,50.454,-4.82643
2633742,Withersfield,Withersfield,,52.10735,0.41877
2633743,Withernwick,Withernwick,,53.84886,-0.18742
2633744,Withernsea,Withernsea,"Uiternsi,Уитернси",53.7311,0.03347
2633745,Witheridge,Witheridge,,50.91743,-3.70351
2633746,Withcote,Withcote,,52.64499,-0.82349
2633747,Withcall,Withcall,Withcall,53.33575,-0.07526
2633748,River Witham,River Witham,River Witham,52.93084,0.06695
2633749,Witham,Witham,,51.80007,0.64038
2633750,Witchingham,Witchingham,,52.73333,1.11667
2633751,Witchford,Witchford,,52.38699,0.20602
2633752,Witchampton,Witchampton,,50.85891,-2.017
2633753,Witcham,Witcham,,52.39844,0.14935
2633754,Wistow,Wistow,Wistow,53.81667,-1.1
2633755,Wistow,Wistow,,52.412,-0.12197
2633756,Wiston,Wiston,,55.56667,-3.63333
2633757,Wiston,Wiston,Wiston,51.82583,-4.87
2633758,Wistaston,Wistaston,,53.08078,-2.47741
2633759,Wistanstow,Wistanstow,Wistanstow,52.46468,-2.83764
2633760,Wissington,Wissington,,51.96545,0.84654
2633761,River Wissey,River Wissey,River Wissey,52.56667,0.35
2633762,Wissett,Wissett,Wissett,52.36106,1.47316
2633763,Wisley,Wisley,,51.3227,-0.47649
2633764,River Wiske,River Wiske,River Wiske,54.23333,-1.43333
2633765,Wishaw,Wishaw,"Vishou,Wishae,Wishaw,Вішоу",55.76667,-3.91667
2633766,Wishaw,Wishaw,,52.54864,-1.74588
2633767,Wisborough Green,Wisborough Green,Wisborough Green,51.02308,-0.50604
2633768,Wisbech Saint Mary,Wisbech Saint Mary,Wisbech Saint Mary,52.65218,0.09768
2633769,Wisbech Eye,Wisbech Eye,,52.85,0.23333
2633770,Wisbech Channel,Wisbech Channel,,52.9,0.21667
2633771,Wisbech,Wisbech,"Uisbijch,Visbicas,Visbičas,Vizbich,Wisbech,wysbch,Визбич,Уисбийч,ویسبچ",52.66622,0.15938
2633772,Hill of Wirren,Hill of Wirren,"Hill of Wirren,Wirren",56.85,-2.78333
2633773,Wirral,Wirral,Wirral,53.33333,-3.08333
2633774,Wirksworth,Wirksworth,Wirksworth,53.08232,-1.57391
2633775,Winwick,Winwick,Winwick,53.43333,-2.6
2633776,Winwick,Winwick,,52.41302,-0.37774
2633777,Wintringham,Wintringham,Wintringham,54.1459,-0.64759
2633778,Winton,Winton,,54.49048,-2.33116
2633779,Winton,Winton,,50.73333,-1.86667
2633780,Winthorpe,Winthorpe,Winthorpe,53.16667,0.33333
2633781,Winthorpe,Winthorpe,Winthorpe,53.1,-0.78333
2633782,Winterton Shoal,Winterton Shoal,,52.81667,1.76667
2633783,Winterton Ridge,Winterton Ridge,,52.83333,2.03333
2633784,Winterton Overfalls,Winterton Overfalls,,52.71667,1.76667
2633785,Winterton Ness,Winterton Ness,Winterton Ness,52.73333,1.66667
2633786,Winterton,Winterton,,53.65497,-0.59885
2633787,Winterton-on-Sea,Winterton-on-Sea,Winterton,52.71547,1.69099
2633788,Winterslow,Winterslow,Winterslow,51.09717,-1.66307
2633789,Winteringham,Winteringham,Winteringham,53.68727,-0.59183
2633790,Winter Hill,Winter Hill,Winter Hill,53.63333,-2.51667
2633791,Winterbourne Stoke,Winterbourne Stoke,,51.16729,-1.89806
2633792,Winterbourne Monkton,Winterbourne Monkton,,51.44694,-1.85636
2633793,Winterbourne Gunner,Winterbourne Gunner,"Winterbourne Cherborough,Winterbourne Gunner",51.11608,-1.74436
2633794,Winterbourne Earls,Winterbourne Earls,Winterbourne Earls,51.10635,-1.75497
2633795,Winterbourne Dauntsey,Winterbourne Dauntsey,"Winterbourne,Winterbourne Dauntsey",51.11223,-1.74996
2633796,Winterbourne Bassett,Winterbourne Bassett,Winterbourne Bassett,51.4727,-1.85194
2633797,Winterbourne,Winterbourne,"Winterbourn,Winterbourne",51.44609,-1.3466
2633798,Winterborne Stickland,Winterborne Stickland,"Stickland Winterborne,Winterborne Stickland",50.84078,-2.23556
2633799,Winterborne Steepleton,Winterborne Steepleton,"Steepleton,Winterborne Steepleton",50.7,-2.53333
2633800,Winterborne Monkton,Winterborne Monkton,"Monkton,Winterborne Monkton",50.69204,-2.45322
2633801,Winterborne Kingston,Winterborne Kingston,Winterborne Kingston,50.77788,-2.19762
2633802,Winterborne Abbas,Winterborne Abbas,,50.71667,-2.55
2633803,Winston,Winston,,54.54519,-1.78854
2633804,River Winster,River Winster,River Winster,54.18333,-2.86667
2633805,Winster,Winster,,54.31667,-2.88333
2633806,Winster,Winster,,53.1418,-1.64258
2633807,Winson,Winson,,51.77681,-1.86922
2633808,Winslow,Winslow,"Uinslou,Winslow i Buckinghamshire,Уинслоу",51.94284,-0.88131
2633809,Winsham,Winsham,Winsham,50.85,-2.9
2633810,Winsford,Winsford,,53.18333,-2.51667
2633811,Winsford,Winsford,Winsford,51.10194,-3.56528
2633812,Winscales,Winscales,"Windscales,Winscales",54.61667,-3.5
2633813,Winnington,Winnington,Winnington,53.26367,-2.53329
2633814,Winnersh,Winnersh,Winnersh,51.42747,-0.87994
2633815,Winmarleigh,Winmarleigh,Winmarleigh,53.92632,-2.80328
2633816,Winlaton,Winlaton,Winlaton,54.95322,-1.71923
2633817,Winksley,Winksley,,54.13666,-1.61764
2633818,Winkleigh,Winkleigh,Winkleigh,50.85581,-3.943
2633819,Winkfield,Winkfield,Winkfield,51.44228,-0.69825
2633820,Wingrave,Wingrave,Wingrave,51.86494,-0.74244
2633821,Wingham,Wingham,,51.27168,1.21463
2633822,Wingfield,Wingfield,,52.34716,1.27115
2633823,Wingfield,Wingfield,"Wingfield,Winkfield",51.30889,-2.25278
2633824,Wingerworth,Wingerworth,,53.20194,-1.43974
2633825,Wingates,Wingates,Wingates,55.25,-1.85
2633826,Wingate Reef,Wingate Reef,,55.71667,-1.83333
2633827,Wingate,Wingate,,54.73242,-1.37896
2633828,The Wing,The Wing,,58.73942,-2.97554
2633829,Wing,Wing,,52.61775,-0.6827
2633830,Wing,Wing,Wing,51.89524,-0.71956
2633831,Winfrith Newburgh,Winfrith Newburgh,"Winfrith,Winfrith Newburgh",50.66246,-2.27428
2633832,Winfrith Heath,Winfrith Heath,,50.66667,-2.26667
2633833,Winforton,Winforton,"Winfarton,Winforton",52.11724,-3.02602
2633834,Winford,Winford,,51.38333,-2.66111
2633835,Winfarthing,Winfarthing,Winfarthing,52.43056,1.0979
2633836,Winestead,Winestead,,53.70202,-0.03268
2633837,Wine Cove,Wine Cove,,56.93333,-2.2
2633838,Windy Gyle,Windy Gyle,"Windy Gyle,Windygate Hill",55.41667,-2.21667
2633839,Wind Wick,Wind Wick,,58.76667,-2.93333
2633840,Royal Borough of Windsor and Maidenhead,Royal Borough of Windsor and Maidenhead,"WNM,Windsor and Maidenhead",51.46667,-0.66667
2633841,Windsor,Windsor,,54.56667,-5.95
2633842,Windsor,Windsor,"New Windsor,Uindzor,Vindzor,Windesoria,Windlesora,Windlesōra,Windsor,Windsor i Berkshire,u~inza,wen sha,winjeo,wndzr  byrkshayr,Виндзор,Віндзор,Уиндзор,وندزر، بيركشاير,ウィンザー,溫莎,윈저",51.48333,-0.6
2633843,River Windrush,River Windrush,,51.7,-1.4
2633844,Windrush,Windrush,,51.81688,-1.72254
2633845,Windrow Burn,Windrow Burn,,55.55,-3.85
2633846,Windmill Hill,Windmill Hill,"SU0875071449,Windmill Hill",51.43333,-1.86667
2633847,Windley,Windley,Windley,53.00388,-1.54548
2633848,Windlestraw Law,Windlestraw Law,,55.68333,-3
2633849,Windlesham,Windlesham,,51.36509,-0.65476
2633850,Windi Clett,Windi Clett,"Stanyard rock,Windi Clett",60.5,-1.03333
2633851,Windermere,Windermere,,54.38086,-2.90709
2633852,Windermere,Windermere,"Lake Windermere,Windermere",54.37296,-2.93438
2633853,Winder,Winder,,54.54797,-3.47314
2633854,Wind Burn,Wind Burn,,55.26667,-2.26667
2633855,Wincobank,Wincobank,Wincobank,53.42061,-1.42111
2633856,Winchmore Hill,Winchmore Hill,Winchmore Hill,51.63333,-0.1
2633857,Winchfield,Winchfield,,51.28592,-0.91023
2633858,Winchester,Winchester,"Caerwynt,Gorad Vinchehstehr,Ouinchetre,Ouînchêtre,Uinchest""r,Uinchester,Vincester,Vinchester,Winchester,Winsjester,Wintonia,u~inchesuta,vinacestara,vincestar,wen che si te,win ches texr,wincheseuteo,wynchstr,wyntshstr,wynzstr,Винчестер,Вінчестер,Горад Вінчэстэр,Уинчестер,Уинчестър,Վինչեսթեր,וינצסטר,وينتشستر,وینچستر,विनचेस्टर,వించెస్టర్,ವಿಂಚೆಸ್ಟರ್,วินเชสเตอร์,ウィンチェスター,温彻斯特,윈체스터",51.06513,-1.3187
2633859,Winchelsea,Winchelsea,,50.92376,0.7081
2633860,Winchcombe,Winchcombe,"Winchcomb,Winchcombe",51.95363,-1.96398
2633861,Wincanton,Wincanton,Wincanton,51.05676,-2.40574
2633862,Wimborne St Giles,Wimborne St Giles,"Saint Giles,Wimborne Saint Giles,Wimborne St Giles",50.9,-1.95
2633863,Wimborne Minster,Wimborne Minster,"Uimborn Minstur,Wimborne,Wimborne Minster,Уимборн Минстър",50.78333,-1.98333
2633864,Wimblington,Wimblington,Wimblington,52.50925,0.08416
2633865,Wimbledon Common,Wimbledon Common,Wimbledon Common,51.43665,-0.23355
2633866,Wimbledon,Wimbledon,"Uimbldon,Uimbuldun,Vimbldon,Wimbledon,btwlt wymbldwn,thennis wimbeildan,u~inburudon,vimbaldan,wen bu er deng wang qiu jin biao sai,Вимблдон,Уимблдон,Уимбълдън,אליפות וימבלדון,بطولة ويمبلدون,ವಿಂಬಲ್ಡನ್,การแข่งขันเทนนิสวิมเบิลดัน,เทนนิสวิมเบิลดัน,ウィンブルドン,温布尔登网球锦标赛",51.42212,-0.20805
2633867,Wimbish,Wimbish,"Gwimbach,Wenbech,Wimbeis,Wimbish,Winbeche,Winebisc,Wymbyshe",52.00615,0.3206
2633868,Wiltshire,Wiltshire,"County of Wiltshire,WIL,Wilts,Wiltshire",51.25,-1.91667
2633869,Wilton Park,Wilton Park,,51.6,-0.63333
2633870,Wilton Castle,Wilton Castle,Wilton Castle,54.56667,-1.1
2633871,Wilton,Wilton,,55.43333,-2.78333
2633872,Wilton,Wilton,"Wilton,Wilton-on-Tees",54.56667,-1.1
2633873,Wilton,Wilton,Wilton,51.91667,-2.6
2633874,Wilton,Wilton,"Uiltun,Vilton,Wiltonia,Вілтон,Уилтън",51.07926,-1.8621
2633875,Wilton,Wilton,,51,-3.1
2633876,Wilsthorpe,Wilsthorpe,Wilsthorpe,52.7,-0.36667
2633877,Wilsontown,Wilsontown,,55.77902,-3.67754
2633878,Wilshamstead,Wilshamstead,"Wilhamstead,Willshamstead,Wilstead",52.08088,-0.44889
2633879,Wilsford,Wilsford,Wilsford,51.3,-1.85
2633880,Wilsden,Wilsden,Wilsden,53.82084,-1.85959
2633881,Wilpshire,Wilpshire,Wilpshire,53.78671,-2.47548
2633882,Wilnecote,Wilnecote,Wilnecote,52.60649,-1.65808
2633883,Wilmslow,Wilmslow,,53.32803,-2.23148
2633885,Wilmington,Wilmington,,51.43181,0.19003
2633886,Wilmington,Wilmington,,50.81971,0.19252
2633887,Wilmcote,Wilmcote,Wilmcote,52.22081,-1.76528
2633888,Willstone,Willstone,,52.55,-2.75
2633889,Willsborough,Willsborough,,55.05,-7.21667
2633890,Willoughton,Willoughton,Willoughton,53.42738,-0.60063
2633891,Willoughby on the Wolds,Willoughby on the Wolds,"Willoughby,Willoughby on the Wolds",52.82199,-1.05502
2633892,Willoughby,Willoughby,Willoughby,53.21667,0.2
2633893,Willoughby,Willoughby,,52.30087,-1.23785
2633894,Williton,Williton,Williton,51.16236,-3.32208
2633895,Willington Quay,Willington Quay,"Willington Quay,Willington Quay-on-Tyne",54.99255,-1.49489
2633896,Willington,Willington,Willington,54.71667,-1.7
2633897,Willington,Willington,Willington,52.85203,-1.56332
2633898,Willington,Willington,,52.13409,-0.37235
2633899,Willingham,Willingham,,53.35,-0.68333
2633900,Willingham,Willingham,,52.31404,0.05776
2633901,Willingdon,Willingdon,"Willingdon,Wiltingdon",50.80008,0.255
2633902,Willingale Doe,Willingale Doe,"Willingale,Willingale Doe",51.75,0.31667
2633903,Wilford,Wilford,"Wilford,Willford",52.92573,-1.16
2633904,Willey,Willey,Willey,52.58333,-2.48333
2633905,Willey,Willey,Willey,52.45,-1.26667
2633906,Willesden Green,Willesden Green,,51.5471,-0.22899
2633907,Willesden,Willesden,"Willesden,vilsadana,ولیزڈن,विल्सडन",51.53333,-0.23333
2633908,Willesborough,Willesborough,,51.13865,0.89573
2633909,Willersley,Willersley,,52.11984,-3.00655
2633910,Willerby,Willerby,Willerby,54.18333,-0.45
2633911,Willerby,Willerby,,53.76099,-0.44186
2633912,Willenhall,Willenhall,Willenhall,52.58514,-2.05934
2633913,Willen,Willen,Willen,52.0641,-0.72312
2633914,Willaston,Willaston,Willaston,53.28333,-3
2633915,Willaston,Willaston,,53.06667,-2.48333
2633916,Willand,Willand,Willand,50.88333,-3.36667
2633917,Wilden,Wilden,,52.18272,-0.39645
2633918,Wild Boar Fell,Wild Boar Fell,Wild Boar Fell,54.38835,-2.36687
2633919,Wilcott,Wilcott,,52.76328,-2.92713
2633920,Wilcote,Wilcote,,51.83705,-1.45947
2633921,Wilcot,Wilcot,,51.34909,-1.79575
2633922,Wilby,Wilby,Wilby,52.47052,0.99173
2633923,Wilby,Wilby,,52.30055,1.28514
2633924,Wilby,Wilby,Wilby,52.2868,-0.72905
2633925,Wilburton,Wilburton,,52.35191,0.17673
2633926,Wilberfoss,Wilberfoss,,53.94854,-0.88945
2633927,Wilbarston,Wilbarston,,52.48636,-0.8033
2633928,Wigtownshire,Wigtownshire,"County of Wigtown,West Galloway,Wigtown County,Wigtownshire",54.6,-4.83333
2633929,Wigtown Sands,Wigtown Sands,"Wigton Sands,Wigtown Sands",54.86667,-4.4
2633931,Wigtown Bay,Wigtown Bay,"Wigton Bay,Wigtown Bay",54.8,-4.3
2633932,Wigtown,Wigtown,"Baile na h-Uige,Baile na h-Úige,Uigtaun,Wigton,Wigtoun,Wigtown,Уигтаун",54.86783,-4.44489
2633933,Wigton,Wigton,,54.82482,-3.16114
2633934,Wigtoft,Wigtoft,,52.90818,-0.12291
2633935,Wigston Parva,Wigston Parva,"Wigston,Wigston Parva",52.50663,-1.31574
2633936,Wigston Magna,Wigston Magna,"Great Wigston,Wigston Magna,Wigston Two Steeples",52.58128,-1.09248
2633937,Wigmore,Wigmore,,52.31667,-2.85
2633938,Wighton,Wighton,,52.92236,0.88354
2633939,Isle of Wight,Isle of Wight,"Eiland Wight,Ellan Eeaght,Enez Wight,GJao Wight,Ile de Wight,Ilha de Wight,Illa de Wight,Inis Iocht,Insel Wight,Insula Wight,Insulo di Wight,Isla de Wight,Isle o Wight,Isle of Wight,Islla de Wight,Isola di Wight,Isula di Wight,Nisos Gouait,Ostriv Vajt,Ostrov Uajt,Ostrvo Vajt,Pulau Wight,Pulo ng Wight,Uajt,Vaita,Vaito sala,Vayt adasi,Vayt adası,Vecta,Wight,Wight Adasi,Wight Adası,Wight-sziget,Wighteyja,Wightsaari,Wique,Ynys Wyth,a'ila ofa va'ita,a'ila opha va'ita,ail-obeuwaiteu ju,huai te dao jun,jzyrh wayt,waito dao,wayt,Ìsula di Wight,Île de Wight,Đảo Wight,Ƿiht,Νήσος Γουάιτ,Острво Вајт,Остров Уайт,Острів Вайт,Уайт,אינזל פון ווייט,האי וייט,جزیره وایت,وايت,आइल ऑफ़ वाइट,आईल ऑफ वाइट,ワイト島,怀特岛郡,아일오브와이트 주",50.66667,-1.33333
2633940,Wiggonby,Wiggonby,,54.86733,-3.09802
2633941,Wigglesworth,Wigglesworth,Wigglesworth,54.00958,-2.29271
2633942,Wigginton,Wigginton,,54.01717,-1.0831
2633943,Wigginton,Wigginton,,52.65728,-1.6925
2633944,Wigginton,Wigginton,,51.99727,-1.435
2633945,Wigginton,Wigginton,,51.78329,-0.63875
2633946,Wiggenhall St Peter,Wiggenhall St Peter,"Wiggenhall,Wiggenhall Saint Peter,Wiggenhall St Peter",52.68333,0.36667
2633947,Wiggenhall Saint Germans,Wiggenhall Saint Germans,Saint Germans,52.70219,0.36409
2633948,Wigan,Wigan,"Uigan,Uigun,Vigan,Viganas,Wigan,XWI,la uigyn,u~igan,wei gan,wei gen,wigeon,wygan,Виган,Віган,Уиган,Уигън,ویگان,ウィガン,威根,维甘,위건",53.53333,-2.61667
2633949,Wife Geo,Wife Geo,,58.61667,-3.03333
2633950,Wield,Wield,Wield,51.14487,-1.09519
2633951,Widworthy,Widworthy,,50.78815,-3.11131
2633952,Widows Row,Widows Row,,54.19488,-5.88356
2633953,Widney Manor Station,Widney Manor Station,WMR,52.396,-1.774
2633954,Widnes,Widnes,"Vidnes,Widnes,wei de ni si,wydnz,Виднес,ویدنز,威德尼斯",53.3618,-2.73406
2633955,Widmerpool,Widmerpool,Widmerpool,52.84819,-1.0667
2633956,Widford,Widford,,51.82321,0.05897
2633957,Widford,Widford,Widford,51.7,0.45
2633958,Widewall Bay,Widewall Bay,,58.81667,-3
2633959,Widemouth Bay,Widemouth Bay,Widemouth Bay,50.78333,-4.58333
2633960,Wide Firth,Wide Firth,,59.03333,-2.98333
2633961,Widecombe in the Moor,Widecombe in the Moor,"Widdecombe,Widecombe in the Moor",50.5762,-3.81221
2633962,Widdrington,Widdrington,,55.25,-1.58333
2633963,Widdington,Widdington,,51.96103,0.23749
2633964,Widdale Beck,Widdale Beck,,54.3,-2.21667
2633965,River Wid,River Wid,,51.71667,0.48333
2633966,Wickwar,Wickwar,Wickwar,51.59404,-2.39968
2633967,Wick Skerry,Wick Skerry,,60.53333,-1.01667
2633968,Wick Saint Lawrence,Wick Saint Lawrence,Wick Saint Lawrence,51.38472,-2.91028
2633969,Wick River,Wick River,"Wick River,Wick Water",58.44206,-3.08907
2633970,Wickhampton,Wickhampton,,52.59255,1.57965
2633971,Wickham Market,Wickham Market,Wickham Market,52.15298,1.36299
2633972,Wickhambrook,Wickhambrook,,52.16132,0.56022
2633973,Wickham Bishops,Wickham Bishops,,51.7783,0.66823
2633974,Wickham,Wickham,,51.44342,-1.432
2633975,Wickham,Wickham,Wickham,50.89924,-1.18815
2633976,Wickford,Wickford,,51.61101,0.52331
2633977,Wickersley,Wickersley,Wickersley,53.42128,-1.28115
2633978,Wickenby,Wickenby,,53.32244,-0.36851
2633979,Wicken Bonhunt,Wicken Bonhunt,Wicken Bonhunt,51.97809,0.18222
2633980,Wicken,Wicken,,52.31278,0.29719
2633981,Wicken,Wicken,,52.04726,-0.91311
2633982,Wick,Wick,"Inbhir Uige,Inbhir Ùige,Inbhir Úige,Uik,WIC,Week,Weik,Wick,Wick i Skottland,Yn Ooig,Уик",58.43906,-3.09424
2633983,Wick,Wick,Wick,52.1,-2.05
2633984,Wick,Wick,Wick,51.45306,-2.42361
2633985,Wick,Wick,Y Wig,51.43944,-3.54944
2633986,Wick,Wick,,50.8234,-0.54327
2633987,Wychnor,Wychnor,"Wichnor,Wychnor,Wyehnor",52.74329,-1.73988
2633988,Wichling,Wichling,,51.26667,0.75
2633989,Wibtoft,Wibtoft,Wibtoft,52.48566,-1.29458
2633990,Wibsey,Wibsey,,53.76778,-1.78114
2633991,Wiay Island,Wiay Island,,57.38333,-7.21667
2633992,Wiay Island,Wiay Island,,57.33333,-6.5
2633993,Whyteleafe,Whyteleafe,,51.30808,-0.08429
2633994,Whorlton,Whorlton,Whorlton,54.41667,-1.25
2633995,Whixley,Whixley,Whixley,54.01431,-1.32256
2633996,Whixall,Whixall,Whixall,52.9054,-2.72097
2633997,Whitworth,Whitworth,Whitworth,53.65601,-2.1771
2633998,Whitwick,Whitwick,Whitwick,52.73997,-1.35536
2633999,Whitwell,Whitwell,Whitwell,53.28333,-1.21667
2634000,Whitwell,Whitwell,,52.75,1.1
2634001,Whitwell,Whitwell,,51.87644,-0.28316
2634002,Whitwell,Whitwell,,50.59844,-1.2642
2634003,Whittonstall,Whittonstall,,54.90919,-1.88845
2634004,Whitton,Whitton,,51.44941,-0.35688
2634005,Whitton,Whitton,,55.48333,-2.38333
2634006,Whitton,Whitton,,53.7,-0.63333
2634007,Whitton,Whitton,,52.3,-3.06667
2634008,Whitton,Whitton,Whitton,52.08333,1.13333
2634009,Whittlesford,Whittlesford,Whittlesford,52.11345,0.14969
2634010,Whittlesey,Whittlesey,"Whittlesea,Whittlesey",52.55804,-0.13016
2634011,Whittlebury,Whittlebury,,52.09027,-0.9922
2634012,Whittington,Whittington,Whittington,54.16667,-2.6
2634013,Whittington,Whittington,,53.26667,-1.4
2634014,Whittington,Whittington,,52.86667,-3
2634015,Whittington,Whittington,Whittington,52.68333,-1.76667
2634016,Whittington,Whittington,Whittington,51.89085,-1.98861
2634017,Whittingham Carr,Whittingham Carr,"Whittingham Carr,Wittingham Car",55.53333,-1.61667
2634018,Whittingham,Whittingham,,55.38333,-1.88333
2634019,Whittingehame,Whittingehame,"Whittingehame,Whittingham,Whittinghame",55.95227,-2.63268
2634020,Whitterhope Burn,Whitterhope Burn,,55.25,-2.78333
2634021,Whitstable,Whitstable,"Uitstabl,Vitstabl,Whitstable,Витстабл,Уитстабл",51.3607,1.0257
2634022,Whitsome,Whitsome,,55.74876,-2.21758
2634023,Whitsbury,Whitsbury,Whitsbury,50.97118,-1.81965
2634024,Whitrigg,Whitrigg,"Whitrigg,Whitrigg Lees",54.9,-3.2
2634025,Whitney,Whitney,,52.11667,-3.08333
2634026,Whitnash,Whitnash,,52.27047,-1.52186
2634027,Whitmore,Whitmore,Whitmore,52.96667,-2.28333
2634029,Whitley Thorpe,Whitley Thorpe,"Whitley Thorpe,Witley Thorpe",53.68333,-1.15
2634030,Whitley Shad,Whitley Shad,,55.04611,-1.41083
2634031,Whitleybridge,Whitleybridge,,53.69523,-1.15691
2634032,Whitley Bay,Whitley Bay,"Whitley,Whitley Bay",55.03973,-1.44713
2634033,Whitley,Whitley,Whitley,53.68333,-1.15
2634034,Whitley,Whitley,,52.39509,-1.49345
2634035,Whitland,Whitland,"Hendy Gwyn,Whitland",51.81889,-4.61528
2634036,Whitkirk,Whitkirk,Whitkirk,53.80014,-1.455
2634037,Whitington,Whitington,,52.56412,0.5303
2634038,Whiting Point,Whiting Point,,58.85,-3.16667
2634039,Whiting Ness,Whiting Ness,,56.56667,-2.53333
2634040,Whiting Bay,Whiting Bay,Whiting Bay,55.5,-5.08333
2634041,Whiting Bank,Whiting Bank,,52.03333,1.53333
2634042,Whithorn,Whithorn,"Taigh Mhartainn,Taigh Mhàrtainn,Taigh Mhártainn,Whitehorn,Whithorn",54.73232,-4.41559
2634043,Witherley,Witherley,,52.5763,-1.51907
2634044,Whitgreave,Whitgreave,,52.85111,-2.14979
2634045,Whitgift,Whitgift,,53.69534,-0.76713
2634046,Whitford,Whitford,,53.28333,-3.28333
2634047,Whitfield,Whitfield,Whitfield,54.9,-2.33333
2634048,Whitfield,Whitfield,Whitfield,52.05,-1.11667
2634049,Whitfield,Whitfield,,51.16126,1.29004
2634050,Whitewell,Whitewell,Whitewell,53.91866,-2.52059
2634051,River Whitewater,River Whitewater,River Whitewater,51.36667,-0.93333
2634052,White Water,White Water,,56.86667,-3.16667
2634053,White Waltham,White Waltham,,51.48833,-0.77844
2634054,Whitewall Corner,Whitewall Corner,,54.11667,-0.78333
2634055,White Stones,White Stones,,57.68333,-2.56667
2634056,White Stones,White Stones,,54.89361,-1.32944
2634057,Whitestone,Whitestone,Whitestone,50.7282,-3.60257
2634058,Whites Ness,Whites Ness,,60.2,-1.55
2634059,Whitesides Corner,Whitesides Corner,,54.8,-6.35
2634060,Porth-mawr,Porth-mawr,"Porth Mawr,Porth-mawr,Whitesand Bay,Whitesands Bay",51.89528,-5.30917
2634061,Whitsand Bay,Whitsand Bay,"Whitesand Bay,Whitsand Bay",50.33333,-4.28333
2634062,Whitesand Bay,Whitesand Bay,Whitesand Bay,50.1,-5.7
2634063,White Roding,White Roding,,51.79884,0.26571
2634064,White Park Bay,White Park Bay,White Park Bay,55.25,-6.4
2634065,Whiteparish,Whiteparish,Whiteparish,51.01041,-1.64855
2634066,White Notley,White Notley,White Notley,51.83549,0.59034
2634067,Whiten Head,Whiten Head,Kennageall,58.57899,-4.58035
2634068,Whiteness Voe,Whiteness Voe,,60.01667,-1.3
2634069,Whiteness Sands,Whiteness Sands,,57.83333,-3.93333
2634070,White Ness,White Ness,,57.85,-4
2634071,White Ness,White Ness,,60.21667,-1.3
2634072,Whitendale River,Whitendale River,"Whitedale,Whitendale River",53.96667,-2.51667
2634073,White Nab,White Nab,,54.26167,-0.37667
2634074,White Mountain,White Mountain,,54.85,-6.85
2634075,Whitemill Skerry,Whitemill Skerry,,59.31667,-2.51667
2634076,Whitemill Point,Whitemill Point,,59.3,-2.53333
2634077,Whitemill Bay,Whitemill Bay,,59.3,-2.53333
2634078,White Lyne,White Lyne,"White Line,White Lyne",55.03333,-2.78333
2634079,White Loch of Myrton,White Loch of Myrton,"White Loch,White Loch of Myrton",54.75,-4.55
2634080,White Loch,White Loch,,54.9,-4.95
2634081,White Loch,White Loch,,54.76667,-4.48333
2634082,Whitekirk,Whitekirk,,56.02442,-2.65007
2634083,White Island,White Island,White Island,49.97772,-6.29108
2634084,Whiteinch,Whiteinch,Whiteinch,55.87298,-4.33089
2634085,Whitehouse Upper,Whitehouse Upper,"Whitehouse,Whitehouse Upper",54.63333,-5.91667
2634086,Whitehouse Lower,Whitehouse Lower,,54.65,-5.91667
2634087,Whitehouse,Whitehouse,,57.21667,-2.61667
2634088,Whitehouse,Whitehouse,,55.78333,-5.48333
2634089,The White Horses,The White Horses,"The White Horses,White Horses",51.21667,-4.58333
2634090,Whitehorse Hill,Whitehorse Hill,"White Horse Hill,Whitehorse Hill",51.56667,-1.56667
2634091,Whitehills,Whitehills,Whitehills,57.66667,-2.58333
2634092,White Hill of Vatsetter,White Hill of Vatsetter,,60.58333,-1
2634093,Point of Whitehill,Point of Whitehill,,60.51667,-1.01667
2634094,White Head,White Head,,54.73333,-5.7
2634095,Whitehead,Whitehead,,54.75371,-5.70933
2634096,Whitehaven,Whitehaven,"Uajtkhejvun,Уайтхейвън",54.54897,-3.58412
2634097,Whitehaugh Water,Whitehaugh Water,"Whitehaugh Burn,Whitehaugh Water",55.51667,-4.18333
2634098,Whitehaugh,Whitehaugh,,57.25,-2.66667
2634099,Whitehall,Whitehall,Whitehall,59.14,-2.602
2634100,Whitegate,Whitegate,Whitegate,53.21667,-2.55
2634101,Whiteford Point,Whiteford Point,,51.64722,-4.24417
2634102,Whitefield Loch,Whitefield Loch,,54.86667,-4.75
2634103,Whitefield,Whitefield,Whitefield,53.55,-2.3
2634104,Whitefarland Bay,Whitefarland Bay,,55.86667,-6.08333
2634105,Whitefarland,Whitefarland,Whitefarland,55.61714,-5.39231
2634106,White Esk,White Esk,,55.2,-3.18333
2634108,Whitecroft,Whitecroft,,51.75383,-2.55194
2634109,White Coomb,White Coomb,White Coomb,55.41667,-3.36667
2634110,Whitechurch,Whitechurch,"Whitchurch,Whitechurch",51.99417,-4.69611
2634111,Whitechurch,Whitechurch,,50.8,-2.23333
2634112,Whitechapel,Whitechapel,"Uajtchepel,Whitechapel,bai jiao tang,howaitochaperu,hva'itacaipala,hwaiteuchaepeul,wayt tshabl,Уайтчепел,וייטצאפל,وائیٹچیپل,وايت تشابل,ह्वाइटचैपल,ホワイトチャペル,白教堂,화이트채플",51.51382,-0.06583
2634113,White Caterthun,White Caterthun,,56.78333,-2.73333
2634114,White Cart Water,White Cart Water,"White Cart,White Cart River,White Cart Water",55.88333,-4.4
2634115,White Bridge,White Bridge,,56.65,-4
2634116,Whitebooth Road,Whitebooth Road,,53.65,-0.21667
2634117,White Bank,White Bank,,55.3,-1.53333
2634118,White Ball,White Ball,,50.96188,-3.28833
2634119,Whiteadder Water,Whiteadder Water,"Whiteadder,Whitedder",55.75,-2.1
2634121,Whiteabbey,Whiteabbey,Whiteabbey,54.66667,-5.9
2634122,Whitcombe,Whitcombe,Whitcombe,50.68333,-2.4
2634123,Whitchurch Canonicorum,Whitchurch Canonicorum,Whitchurch Canonicorum,50.7552,-2.86017
2634124,Whitchurch,Whitchurch,"Whitchurch,Whitchurch i Shropshire,Yr Eglwys Wen",52.96667,-2.68333
2634125,Whitchurch,Whitchurch,"Whitchurch,Whitechurch",51.8816,-0.83784
2634126,Whitchurch,Whitchurch,,51.85,-2.65
2634127,Whitchurch,Whitchurch,,51.51167,-3.22083
2634128,Whitchurch,Whitchurch,,51.49266,-1.08825
2634129,Whitchurch,Whitchurch,,51.40606,-2.56265
2634130,Whitchurch,Whitchurch,Yr Eglwys Wen,51.22995,-1.33904
2634131,Whitchurch,Whitchurch,,52.13412,-1.68953
2634132,Whitchurch,Whitchurch,"Whitchurch,Whitechurch",50.53333,-4.13333
2634133,Whitby Rock,Whitby Rock,,54.49833,-0.60278
2634134,Whitby Road,Whitby Road,,54.5,-0.61667
2634135,Whitby,Whitby,"Streoneshalh,Strēoneshalh,Uitbi,Vitbis,Whitby,hwiteubi,Уитби,휘트비",54.48774,-0.61498
2634136,Whitburn Stile,Whitburn Stile,"Whitburn Steel,Whitburn Stile",54.93333,-1.35
2634137,Whitburn,Whitburn,Whitburn,55.86667,-3.68333
2634138,Whitburn,Whitburn,Whitburn,54.95333,-1.36861
2634139,Whitbourne,Whitbourne,,52.2107,-2.40578
2634140,Whitberry Point,Whitberry Point,"Whitberry Ness,Whitberry Point",56.01667,-2.58333
2634141,Whitbeck,Whitbeck,,54.24346,-3.35308
2634142,Whitaloo Point,Whitaloo Point,,59.13333,-3.3
2634143,Whiston,Whiston,,53.40851,-1.3151
2634144,Whiston,Whiston,,52.23784,-0.75711
2634146,Whissonsett,Whissonsett,"Whissonset,Whissonsett",52.77205,0.84167
2634147,Whisby,Whisby,Whisby,53.2,-0.65
2634148,Whirl Rocks,Whirl Rocks,,55.65,-1.6
2634149,Whipsnade,Whipsnade,,51.85128,-0.53446
2634150,Whippingham,Whippingham,Whippingham,50.73747,-1.26862
2634151,Loch Whinyeon,Loch Whinyeon,,54.91667,-4.15
2634152,Whing Burn,Whing Burn,,55.35,-3.95
2634153,Whimple,Whimple,,50.76649,-3.35655
2634154,Whickhope Burn,Whickhope Burn,,55.16667,-2.48333
2634155,Whickham,Whickham,,54.94561,-1.67635
2634156,Whetstone,Whetstone,Whetstone,52.56667,-1.18333
2634157,Whetstone,Whetstone,Whetstone,51.63333,-0.16667
2634158,Wherwell,Wherwell,Wherwell,51.16697,-1.44299
2634159,Wherstead,Wherstead,,52.02262,1.13832
2634160,Whernside,Whernside,Whernside,54.22954,-2.40558
2634161,Whepstead,Whepstead,Whepstead,52.19209,0.68158
2634162,Whenby,Whenby,Whenby,54.1213,-1.03882
2634163,Whempstead,Whempstead,,51.87119,-0.08463
2634164,Whelford,Whelford,,51.68829,-1.75769
2634165,Wheldrake,Wheldrake,,53.89624,-0.96303
2634166,Bay of Wheevi,Bay of Wheevi,"Bay of Wheevi,Wheevi Bay,Whoevi Bay",59.28333,-2.4
2634167,Wheelock,Wheelock,,53.12875,-2.37292
2634168,Wheeldale Gill,Wheeldale Gill,,54.38333,-0.75
2634169,Wheeldale Beck,Wheeldale Beck,,54.38333,-0.75
2634170,Wheaton Aston,Wheaton Aston,Wheaton Aston,52.71145,-2.22064
2634171,Wheatley,Wheatley,Wheatley,51.74731,-1.13936
2634172,Wheathampstead,Wheathampstead,,51.81148,-0.29371
2634173,Whaw Burn,Whaw Burn,"Waw Burn,Whaw Burn",55.4,-1.58333
2634174,Whauphill,Whauphill,,54.8181,-4.48531
2634175,Whatton,Whatton,,52.94605,-0.8917
2634176,Whatstandwell,Whatstandwell,"Whatstandwell,Whatstandwell Bridge",53.08443,-1.50386
2634177,Whatlington,Whatlington,Whatlington,50.93782,0.50529
2634178,Whatfield,Whatfield,,52.07866,0.95118
2634179,Whatcote,Whatcote,,52.09905,-1.56313
2634180,Wharton,Wharton,,53.19496,-2.50483
2634181,Wharram Percy,Wharram Percy,Wharram Percy,54.0675,-0.68968
2634182,Wharram le Street,Wharram le Street,"Wharram,Wharram le Street",54.08197,-0.67873
2634183,Loch Wharral,Loch Wharral,,56.85,-3.05
2634184,Wharncliffe Side,Wharncliffe Side,"Wharncliffe,Wharncliffe Side",53.4503,-1.55335
2634185,Wharfedale,Wharfedale,Wharfedale,53.88333,-1.45
2634186,River Wharfe,River Wharfe,River Wharfe,53.85,-1.13333
2634187,Whaplode,Whaplode,,52.79934,-0.03639
2634188,Whalton,Whalton,Whalton,55.12699,-1.79752
2634189,Whalsay,Whalsay,"Gouelsei,Hvalsey,Uolsi,Whalsay,Whalsey,Whalsey Island,wo er sai dao,wwlsyy,Γουέλσεϊ,Уолси,וולסיי,沃爾賽島",60.33333,-0.98333
2634190,Whale Point,Whale Point,"Whal Point,Whale Point",59.3,-2.61667
2634191,Whalplaw Burn,Whalplaw Burn,"Whalplaw Burn,Whaplaw Burn,Whuplaw Burn",55.76667,-2.75
2634192,Whalley,Whalley,,53.82209,-2.40712
2634193,Whaligoe,Whaligoe,"Whale Goe,Whaligoe",58.35,-3.16667
2634194,Whaley Bridge,Whaley Bridge,Whaley Bridge,53.33031,-1.9826
2634195,Whales Back,Whales Back,,58.61667,-3.65
2634196,Whale Islet,Whale Islet,,58.43333,-5.13333
2634197,Whale Island,Whale Island,,50.81681,-1.0973
2634198,Whale Firth,Whale Firth,,60.61667,-1.15
2634199,Whaddon,Whaddon,,52.10105,-0.03442
2634200,Whaddon,Whaddon,,52.00042,-0.82801
2634201,Weymouth Bay,Weymouth Bay,"Weymouth Bay,Weymouth Road",50.61667,-2.41667
2634202,Weymouth,Weymouth,"Uehjmut,Uejmut,Vejmut,Vimutium,Weymouth i Dorset,u~eimasu,waymth,wei mao si,weimeoseu,wymwth  dwrst,Вејмут,Уеймът,Уэймут,وايمث,ویموث، دورست,ウェイマス,韦茅斯,웨이머스",50.61448,-2.45991
2634203,Weyhill,Weyhill,,51.21925,-1.55015
2634204,Weybridge,Weybridge,"Vejbridzh,Veybrij,Weybridge,Вейбридж,Վեյբրիջ",51.37178,-0.45975
2634205,Weybread,Weybread,Weybread,52.37439,1.29587
2634206,Weybourne,Weybourne,,52.94292,1.14095
2634207,River Wey,River Wey,,51.36141,-0.47619
2634208,Wetwang,Wetwang,,54.0175,-0.57738
2634209,Wetton Hill,Wetton Hill,,53.1,-1.83333
2634210,Wetton,Wetton,Wetton,53.09536,-1.83858
2634211,Wetleyrocks,Wetleyrocks,"Wetley,Wetleyrocks",53.03333,-2.05
2634212,Wethersfield,Wethersfield,,51.95358,0.48885
2634213,Wetheringsett,Wetheringsett,,52.25702,1.11477
2634214,Baa of Wether Holm,Baa of Wether Holm,,60.38333,-1.01667
2634215,Wether Holm,Wether Holm,,60.43333,-1.15
2634216,Wether Holm,Wether Holm,,60.36667,-1.01667
2634217,Wetherby,Wetherby,"Uehzerbi,Vezerbi,Wedrebi,wedeobi,Везербі,Уэзерби,웨더비",53.92836,-1.38672
2634218,Wetheral,Wetheral,Wetheral,54.88401,-2.83327
2634219,West Yorkshire,West Yorkshire,West Yorkshire,53.7,-1.58333
2634221,West Wratting,West Wratting,,52.14265,0.34676
2634222,West Worthing,West Worthing,,50.81046,-0.39027
2634223,West Worlington,West Worlington,,50.90702,-3.75092
2634224,West Worldham,West Worldham,,51.1258,-0.94083
2634225,Westwood House,Westwood House,"Westwood House,Westwood Park",52.26667,-2.18333
2634226,West Woodhay,West Woodhay,West Woodhay,51.3646,-1.43809
2634227,West Woodburn,West Woodburn,"West Woodburn,Woodburn",55.17637,-2.17096
2634228,Westwood,Westwood,,51.33111,-2.27389
2634229,Westwood,Westwood,"Westwood,Westwood House",55.85,-3.58333
2634230,West Witton,West Witton,West Witton,54.29137,-1.90768
2634231,West Wittering,West Wittering,,50.78076,-0.89573
2634232,West Winterslow,West Winterslow,,51.08984,-1.67048
2634233,West Wickham,West Wickham,,52.11715,0.35435
2634234,West Wickham,West Wickham,"Vest-Uikkhehm,West Wickham,Вест-Уикхэм",51.36667,-0.01667
2634235,West Wemyss,West Wemyss,,56.14024,-3.08475
2634236,West Wellow,West Wellow,,50.97273,-1.58293
2634237,Westwell,Westwell,,51.7881,-1.677
2634238,West Water,West Water,,56.78333,-2.63333
2634239,West Water,West Water,,55.73333,-3.35
2634240,Westward Ho!,Westward Ho!,,51.03883,-4.23806
2634241,Westward,Westward,,54.79346,-3.13059
2634242,West Walton,West Walton,"Walton,West Walton",52.69782,0.17406
2634243,West Vows,West Vows,,56.18333,-2.85
2634244,West Voe of Sumburgh,West Voe of Sumburgh,West Voe of Sumburgh,59.85913,-1.29561
2634245,West Voe of Skellister,West Voe of Skellister,,60.28333,-1.15
2634246,West Voe,West Voe,,60.05,-1.33333
2634247,West Voe,West Voe,,60.33333,-1.68333
2634248,West Tofts,West Tofts,,52.5,0.7
2634249,West Tisted,West Tisted,West Tisted,51.05909,-1.06276
2634250,West Tilbury,West Tilbury,,51.47668,0.3895
2634251,West Thurrock,West Thurrock,,51.47828,0.27672
2634252,West Thorney,West Thorney,West Thorney,50.81591,-0.91049
2634253,West Thirston,West Thirston,,55.29494,-1.70926
2634254,West Tarbert Bay,West Tarbert Bay,,55.7,-5.73333
2634255,West Tarbert,West Tarbert,,55.85342,-5.43969
2634256,West Tanfield,West Tanfield,"Tanfield,West Tanfield",54.20496,-1.58818
2634257,West Swale,West Swale,,51.41667,0.73333
2634258,West Sussex,West Sussex,"County of West Sussex,WSX,West Sussex",51,-0.41667
2634259,West Suffolk,West Suffolk,,52.25,0.83333
2634260,West Stratton,West Stratton,,51.16075,-1.24467
2634261,West Stow,West Stow,West Stow,52.3046,0.66708
2634262,West Stourmouth,West Stourmouth,,51.31801,1.23339
2634263,West Stonesdale,West Stonesdale,West Stonesdale,54.41513,-2.17117
2634264,West Stoke,West Stoke,,50.86667,-0.81667
2634265,West Stockwith,West Stockwith,"Stockwith,West Stockwith",53.443,-0.81361
2634267,West Skerry,West Skerry,,60.08333,-1.36667
2634268,West Skerries,West Skerries,,59.03333,-2.96667
2634269,West Shingles,West Shingles,,51.51667,1.2
2634270,West Scrafton,West Scrafton,West Scrafton,54.24821,-1.88901
2634271,Ness of West Sandwick,Ness of West Sandwick,,60.56667,-1.2
2634272,Holm of West Sandwick,Holm of West Sandwick,,60.58333,-1.2
2634273,West Saltoun,West Saltoun,,55.896,-2.85996
2634274,West Rutts,West Rutts,,50.23333,-4.08333
2634275,Westruther,Westruther,,55.74199,-2.58452
2634276,West Runton,West Runton,Runton,52.9376,1.24386
2634277,West Ruislip Railway Station,West Ruislip Railway Station,WRU,51.56948,-0.43716
2634278,West Rudham,West Rudham,West Rudham,52.81917,0.69386
2634279,West Row,West Row,,52.35117,0.46121
2634280,West Rounton,West Rounton,West Rounton,54.42472,-1.36466
2634281,West Riding,West Riding,"West Riding,West Riding Yorkshire",53.91667,-1.91667
2634282,West Reef,West Reef,,56.23333,-6.45
2634283,West Raynham,West Raynham,West Raynham,52.79266,0.77641
2634284,Westray Firth,Westray Firth,,59.2,-2.91667
2634285,Westray,Westray,Westray,59.3,-3
2634286,West Ravendale,West Ravendale,,53.48176,-0.15194
2634287,West Rasen,West Rasen,,53.3896,-0.40427
2634288,West Rainton,West Rainton,,54.81667,-1.5
2634289,West Quantoxhead,West Quantoxhead,"Quantoxhead,Saint Audries,West Quantoxhead",51.16787,-3.27313
2634290,West Putford,West Putford,,50.91887,-4.33286
2634292,East Prawle,East Prawle,,50.21531,-3.70892
2634293,West Pilton,West Pilton,West Pilton,55.96667,-3.25
2634294,West Pennard,West Pennard,,51.14074,-2.64676
2634295,West Peckham,West Peckham,,51.25246,0.33611
2634296,West Parley,West Parley,"Parley,West Parley",50.77121,-1.87892
2634297,Westow,Westow,,54.07757,-0.84921
2634298,West Ord,West Ord,,55.75,-2.06667
2634299,West Orchard,West Orchard,"Orchard,West Orchard",50.94775,-2.25319
2634300,Westonzoyland,Westonzoyland,,51.10854,-2.92843
2634301,Weston upon Trent,Weston upon Trent,"Weston,Weston upon Trent",52.83333,-2.03333
2634302,Weston upon Trent,Weston upon Trent,"Weston upon Trent,Weston-on-Trent",52.84835,-1.40119
2634303,Weston Underwood,Weston Underwood,,52.97924,-1.56581
2634304,Weston Underwood,Weston Underwood,,52.14574,-0.73862
2634305,Weston under Penyard,Weston under Penyard,"Weston,Weston under Penyard",51.90778,-2.53691
2634306,Weston under Lizard,Weston under Lizard,"Weston,Weston under Lizard",52.69491,-2.28918
2634307,Weston Turville,Weston Turville,Weston Turville,51.79168,-0.75767
2634308,Weston-super-Mare,Weston-super-Mare,"Uehston-s'juper-Mehr,Uest""n sjup""r Me""r,Uestun-Sjupur-Meur,Veston na Meru,Weston super Mare,Weston-super-Mare,u~esuton=supa=mea,weseuteonsyupeomeeo,wstwn-swpr-mar,Вестон на Меру,Уестън сюпър Меър,Уестън-Сюпър-Меър,Уэстон-сьюпер-Мэр,وستون-سوپر-مار,ウェストン＝スーパー＝メア,웨스턴슈퍼메어",51.34603,-2.97665
2634309,Weston Subedge,Weston Subedge,,52.05,-1.81667
2634311,Weston Point,Weston Point,,53.32642,-2.75649
2634312,Weston Patrick,Weston Patrick,"Weston,Weston Patrick",51.2185,-1.014
2634313,Weston on the Green,Weston on the Green,"Weston,Weston on the Green",51.86425,-1.22875
2634314,Weston on Avon,Weston on Avon,"Weston,Weston on Avon",52.16514,-1.76837
2634315,Weston Lullingfields,Weston Lullingfields,"Pullingfields,Weston Lullingfield,Weston Lullingfields",52.81869,-2.85461
2634316,Weston in Gordano,Weston in Gordano,"Weston,Weston in Gordano",51.46444,-2.79667
2634317,Westoning,Westoning,,51.9814,-0.49698
2634318,Weston Corbett,Weston Corbett,,51.21887,-1.01675
2634319,Weston,Weston,Weston,53.91667,-1.73333
2634320,Weston,Weston,,53.31667,-2.73333
2634321,Weston,Weston,Weston,53.2,-0.85
2634322,Weston,Weston,,53.06667,-2.4
2634323,Weston,Weston,,52.85467,-2.64698
2634324,Weston,Weston,,52.80504,-0.08892
2634325,Weston,Weston,Weston,52.43333,1.56667
2634326,Weston,Weston,,52.11757,-1.14052
2634327,Weston,Weston,Weston,51.95471,-0.17035
2634328,Westoe,Westoe,,54.98846,-1.41799
2634329,West Norwood Railway Station,West Norwood Railway Station,WNW,51.4318,-0.1035
2634330,West Norwood,West Norwood,"Lower Norwood,West Norwood,مغربی نوروڈ",51.43164,-0.10265
2634331,Westnewton,Westnewton,Westnewton,55.55,-2.15
2634332,West Ness,West Ness,,56.25,-2.63333
2634333,West Myne,West Myne,,51.21667,-3.53333
2634334,Westmuir,Westmuir,,56.65,-3.03333
2634335,West Muck,West Muck,,57.68333,-2.96667
2634336,West Mouse,West Mouse,"Maen y Bugael,West Mouse",53.41667,-4.55
2634337,Westmorland,Westmorland,"Westmoreland,Westmorland",54.5,-2.58333
2634339,West Monkton,West Monkton,West Monkton,51.04944,-3.05417
2634340,West Molesey,West Molesey,Molesey,51.39985,-0.37997
2634341,City of Westminster,City of Westminster,Westminster,51.5,-0.11667
2634342,Westmill,Westmill,,51.92574,-0.01159
2634343,West Midlands,West Midlands,"Midlands West,West Midlands",52.5,-1.96667
2634344,Westmeston,Westmeston,Westmeston,50.90693,-0.09888
2634345,West Mersea,West Mersea,,51.77798,0.91873
2634346,West Meon,West Meon,West Meon,51.0124,-1.08833
2634347,West Melton,West Melton,,53.50415,-1.358
2634348,West Marton,West Marton,,53.95022,-2.1633
2634349,West Malling,West Malling,,51.29273,0.40907
2634350,West Maiden,West Maiden,,54.93333,-5.75
2634351,West Lydford,West Lydford,,51.08222,-2.62222
2634352,West Lutton,West Lutton,West Lutton,54.11246,-0.57521
2634353,West Lulworth,West Lulworth,West Lulworth,50.62614,-2.24679
2634354,West Lothian,West Lothian,"Linlithgow,Linlithgowshire,Vakaru Lotianas,Vakarų Lotianas,WLN,West Lothian,West Lothian County,Zapadni Lothian,Zapadnyj Lotian,Západní Lothian,Западный Лотиан",55.91667,-3.5
2634355,West Looe,West Looe,"Looe,West Looe",50.4,-4.41667
2634356,West Lomond,West Lomond,"West Lomond,West Lomond Hill",56.23333,-3.3
2634357,West Loch Tarbert,West Loch Tarbert,West Loch Tarbert,57.91667,-6.9
2634358,West Loch Tarbert,West Loch Tarbert,West Loch Tarbert,55.8,-5.53333
2634359,West Loch Roag,West Loch Roag,,58.21667,-6.88333
2634360,West Linton,West Linton,,55.74972,-3.35607
2634361,West Linga,West Linga,West Linga,60.36667,-1.03333
2634362,Westley Waterless,Westley Waterless,,52.18183,0.36671
2634363,Westley,Westley,Westley,52.25,0.66667
2634364,West Lexham,West Lexham,"Lexham,West Lexham",52.71781,0.72393
2634365,Westleton,Westleton,Westleton,52.26469,1.57456
2634366,Westleigh,Westleigh,,51.03333,-4.18333
2634367,West Leake,West Leake,West Leake,52.83388,-1.21553
2634368,West Lavington Down,West Lavington Down,,51.25,-2
2634369,West Laroch,West Laroch,,56.66667,-5.15
2634370,West Langwell,West Langwell,West Langwell,58.05,-4.2
2634371,West Langdon,West Langdon,"Langdon,West Langdon",51.17665,1.31733
2634372,West Lancashire District,West Lancashire District,,53.61098,-2.88693
2634373,West Kyo,West Kyo,"Kyo,West Kyo",54.88333,-1.73333
2634374,West Knoyle,West Knoyle,,51.08782,-2.20762
2634375,West Kirby,West Kirby,"Kirby,West Kirby",53.37302,-3.18417
2634376,West Kip,West Kip,"Kip,Kip Hill,West Kip",55.83182,-3.31368
2634377,West Kington,West Kington,,51.49552,-2.27282
2634378,West Kilbride,West Kilbride,"Cille Bhrighde an Iar,Cille Bhrìghde an Iar,West Kilbride",55.68333,-4.85
2634379,West Kensington Underground Station,West Kensington Underground Station,,51.49075,-0.20575
2634380,West Kensington,West Kensington,,51.49083,-0.20668
2634381,West Keal,West Keal,,53.1496,0.04789
2634382,West Kames,West Kames,,56.04961,-5.34519
2634383,Itchenor,Itchenor,"Itchenor,West Itchenor",50.80561,-0.86689
2634384,West Hythe,West Hythe,,51.06589,1.02877
2634385,Westhouses and Blackwell,Westhouses and Blackwell,,53.11667,-1.36667
2634386,Westhouses,Westhouses,Westhouses,53.11622,-1.36927
2634387,Westhoughton,Westhoughton,Westhoughton,53.54899,-2.52464
2634388,West Horsley,West Horsley,,51.26033,-0.45563
2634389,West Hoathly,West Hoathly,,51.077,-0.05506
2634390,Westhide,Westhide,,52.09463,-2.60596
2634391,West Heslerton,West Heslerton,"Heslerton,West Heslerton",54.17222,-0.60755
2634392,Westhead,Westhead,,53.56288,-2.84363
2634393,West Haven,West Haven,,56.5,-2.7
2634394,West Hauxwell,West Hauxwell,,54.34134,-1.77078
2634395,West Hatch,West Hatch,West Hatch,50.98333,-3
2634396,West Hartlepool,West Hartlepool,West Hartlepool,54.68333,-1.2
2634397,West Harting,West Harting,,50.98702,-0.8917
2634398,West Harptree,West Harptree,,51.3091,-2.63175
2634399,Harling,West Harling,,52.4259,0.91013
2634400,West Hanningfield,West Hanningfield,,51.66947,0.50657
2634401,West Hanney,West Hanney,,51.63389,-1.4138
2634402,Westhampnett,Westhampnett,Westhampnett,50.84811,-0.75033
2634403,West Ham,West Ham,"West Ham,u~esutohamu,ウェストハム",51.53333,0.01667
2634404,West Halton,West Halton,,53.67752,-0.63006
2634405,West Hallam,West Hallam,,52.97093,-1.35846
2634406,West Hagbourne,West Hagbourne,,51.58646,-1.2612
2634407,West Haddon,West Haddon,West Haddon,52.34168,-1.07804
2634408,West Grinstead,West Grinstead,West Grinstead,50.97429,-0.33204
2634409,West Grimstead,West Grimstead,West Grimstead,51.03927,-1.70086
2634410,West Gorton,West Gorton,,53.46825,-2.20165
2634411,West Glamorgan,West Glamorgan,,51.58333,-3.75
2634412,West Gerinish,West Gerinish,"West Geirinish,West Gerinish",57.35,-7.35
2634413,Westgate on Sea,Westgate on Sea,"Vestgejt-on-Si,Westgate on Sea,Вестгейт-он-Си",51.38239,1.33673
2634414,Westgate,Westgate,,54.7387,-2.14371
2634415,West Float,West Float,,53.4,-3.03333
2634416,West Firle,West Firle,,50.84475,0.08716
2634417,Westfield,Westfield,Westfield,55.93333,-3.7
2634418,Westfield,Westfield,,51.88333,-1.86667
2634419,Westfield,Westfield,,50.91023,0.57554
2634421,West Felton,West Felton,"West Felton,Westfelton",52.82491,-2.97352
2634422,Wester Urray,Wester Urray,,57.53333,-4.48333
2634423,Wester Sound,Wester Sound,,60.21667,-1.6
2634424,Wester Ross,Wester Ross,,57.68333,-5
2634425,Wester Rarichie,Wester Rarichie,,57.73333,-3.96667
2634426,Wester Quarff,Wester Quarff,,60.09512,-1.26478
2634427,Western Way,Western Way,"Swashway,Western Way",50.61667,-3.41667
2634428,Eilean Siar,Eilean Siar,"ELS,Eilean Siar,Western Isles,Western Isles Islands Area",57.66667,-7.16667
2634429,Western Downs,Western Downs,"The Chalk Uplands,Western Downs",51,-2
2634430,Western Cleddau,Western Cleddau,,51.76556,-4.89722
2634431,Westerleigh,Westerleigh,Westerleigh,51.51605,-2.43416
2634432,Wester Inverwick,Wester Inverwick,"Inverwick,Wester Inverwick",57.18333,-4.8
2634433,Wester Hœvdi,Wester Hoevdi,,60.13333,-2.11667
2634434,Westerham,Westerham,Westerham,51.26632,0.06892
2634435,Westerglen,Westerglen,,55.98333,-3.8
2634436,Wester Gaulrig,Wester Gaulrig,,57.2,-3.38333
2634437,Westerfield,Westerfield,,52.08462,1.1715
2634438,Wester Fearn Point,Wester Fearn Point,,57.86667,-4.3
2634439,Wester Fearn Burn,Wester Fearn Burn,,57.85,-4.3
2634440,Wester Fearn,Wester Fearn,,57.85,-4.3
2634441,Westerdale,Westerdale,Westerdale,58.45,-3.5
2634442,Westerdale,Westerdale,Westerdale,54.43333,-0.96667
2634443,Wester Clynekirkton,Wester Clynekirkton,,58.03333,-3.88333
2634444,Loch of Wester,Loch of Wester,,58.51667,-3.15
2634445,Westenhanger,Westenhanger,,51.0973,1.03907
2634446,River Westend,River Westend,River Westend,53.43333,-1.76667
2634447,West End,West End,,50.92741,-1.33282
2634448,West Dureberg,West Dureberg,,57.55,-7.73333
2634449,West Dulwich,West Dulwich,West Dulwich,51.43779,-0.09365
2634450,West Drayton,West Drayton,,53.26667,-0.93333
2634451,West Drayton,West Drayton,West Drayton,51.5,-0.46667
2634452,West Down,West Down,West Down,51.16667,-4.11667
2634453,West Dipton Burn,West Dipton Burn,"Dipton Burn,West Dipton Burn",54.95,-2.08333
2634454,West Dereham,West Dereham,,52.58148,0.44801
2634455,West Derby,West Derby,West Derby,53.43279,-2.90963
2634456,West Dean,West Dean,West Dean,51.04264,-1.63507
2634457,West Dean,West Dean,,50.9052,-0.7814
2634458,West Dean,West Dean,,50.77653,0.16171
2634459,West Cults,West Cults,"West Culto,West Cults,West Cutts",57.11667,-2.18333
2634460,West Croachy,West Croachy,,57.3,-4.25
2634461,Cranmore,Cranmore,"Cranmore,West Cranmore",51.18694,-2.475
2634463,West Cottingwith,West Cottingwith,,53.85,-0.95
2634464,Westcott,Westcott,,51.84665,-0.9571
2634465,Westcott,Westcott,,51.22438,-0.37195
2634466,Westcote,Westcote,,51.86667,-1.68333
2634467,West Cornforth,West Cornforth,"Cornforth,West Cornforth",54.70286,-1.51938
2634468,West Coker,West Coker,,50.91912,-2.68707
2634469,West Clandon,West Clandon,,51.26063,-0.50323
2634470,Cilrhedyn,Cilrhedyn,"Cilrhedyn,Kilrhedyn,West Cilrhedyn",51.9854,-4.5063
2634471,West Chinnock,West Chinnock,,50.91822,-2.75876
2634472,West Chiltington,West Chiltington,"West Chillington,West Chiltington",50.9554,-0.44941
2634473,West Chevington,West Chevington,,55.2696,-1.64146
2634474,West Challow,West Challow,"Challow,West Challow",51.59224,-1.47105
2634475,West Chaldon,West Chaldon,,50.65,-2.31667
2634476,West Canisbay,West Canisbay,,58.63333,-3.13333
2634477,West Calder,West Calder,,55.85188,-3.56981
2634478,West Byfleet,West Byfleet,West Byfleet,51.33764,-0.50649
2634479,West Butterwick,West Butterwick,West Butterwick,53.54232,-0.74247
2634480,Westbury on Severn,Westbury on Severn,"Westbury,Westbury on Severn",51.82374,-2.41193
2634481,Westbury,Westbury,,52.68333,-2.95
2634482,Westbury,Westbury,,52.01695,-1.09314
2634483,Westbury,Westbury,"Westbury i Wiltshire,wysbry  wyltshyr,ويسبري، ويلتشير",51.26,-2.1875
2634484,Westbury-sub-Mendip,Westbury-sub-Mendip,"Westbury,Westbury-sub-Mendip",51.23556,-2.71722
2634485,West Burton,West Burton,West Burton,54.28333,-1.96667
2634486,West Burra Island,West Burra Island,West Burra Island,60.08333,-1.35
2634487,Isle of West Burrafirth,Isle of West Burrafirth,"Isle of West Burrafirth,West Burrafirth Island",60.31667,-1.55
2634488,West Burra Firth,West Burra Firth,,60.3,-1.56667
2634489,West Buckland,West Buckland,West Buckland,51.06667,-3.91667
2634490,West Buckland,West Buckland,West Buckland,50.96667,-3.18333
2634491,West Bromwich,West Bromwich,"Uehst-Bromidzh,Uest Bromich,Vest Bromicas,Vest Bromičas,Vest Bromvich,Vest-Bromvich,West Bromwich,weseuteubeulomichi,west br xm mich,wst brwmwych,xi bu luo mi qi,Вест Бромвич,Вест-Бромвіч,Уест Бромич,Уэст-Бромидж,وست برومویچ,เวสต์บรอมมิช,ウェスト・ブロムウィッチ,西布羅米奇,웨스트브로미치",52.51868,-1.9945
2634492,West Brompton,West Brompton,,51.48699,-0.19099
2634493,West Bridgford,West Bridgford,"Uest Bridzhford,Vest Bridzford,West Bridgeford,West Bridgford,wst bryjfwrd,Вест Бриџфорд,Уест Бриджфорд,وست بریجفورد",52.92979,-1.12537
2634494,West Bretton,West Bretton,"Bretton,West Bretton",53.62039,-1.56824
2634495,West End,West End,,52.6464,0.81754
2634496,West Bow,West Bow,,58.75,-3.06667
2634497,Westbourne,Westbourne,,50.86188,-0.92551
2634498,West Boldon,West Boldon,West Boldon,54.94556,-1.45046
2634499,West Bergholt,West Bergholt,,51.91221,0.84986
2634500,West Bedfont,West Bedfont,,51.45016,-0.4664
2634501,West Beckham,West Beckham,"West Beckham,West Beekham",52.91139,1.18186
2634502,West Bay,West Bay,West Bay,50.71084,-2.76107
2634503,West Bay,West Bay,,50.56667,-2.48333
2634504,West Barsham,West Barsham,"Barsham,West Barsham",52.86885,0.82882
2634505,West Barrow,West Barrow,,51.56667,1.08333
2634506,West Barkwith,West Barkwith,,53.30896,-0.26193
2634507,West Barcloy,West Barcloy,"Barcloy,West Barcloy",54.85,-3.78333
2634508,West Bank,West Bank,,55.71667,-6.58333
2634509,West Bagborough,West Bagborough,"Bagborough,West Bagborough",51.09364,-3.18497
2634510,West Ayre,West Ayre,"Torsker Point,West Ayre",59.28333,-2.48333
2634511,West Auckland,West Auckland,,54.63088,-1.72131
2634512,West Ashton,West Ashton,,51.29877,-2.17379
2634513,West Ashby,West Ashby,West Ashby,53.23376,-0.10467
2634514,West Anstey,West Anstey,,51.03456,-3.63791
2634515,West Alvington,West Alvington,,50.28013,-3.79234
2634516,River West Allen,River West Allen,,54.91667,-2.3
2634517,West Acre,West Acre,West Acre,52.7,0.63333
2634518,West Aberthaw,West Aberthaw,,51.39228,-3.40329
2634519,Wervin,Wervin,,53.24112,-2.86825
2634520,Werrington,Werrington,,52.61405,-0.27234
2634521,Werrington,Werrington,,50.66667,-4.36667
2634522,Wereham,Wereham,,52.58583,0.48118
2634523,Weobley Castle,Weobley Castle,Weobley Castle,51.61667,-4.22528
2634524,Weobley,Weobley,,52.1596,-2.875
2634525,Wenvoe,Wenvoe,Wenvoe,51.44776,-3.26369
2634526,Wentworth,Wentworth,,51.4,-0.58333
2634527,Wentworth,Wentworth,,53.46667,-1.41667
2634528,Wentnor,Wentnor,,52.52938,-2.90931
2634529,River Wensum,River Wensum,River Wensum,52.61667,1.36667
2634530,Wensleydale,Wensleydale,"Wensleydale,وینزلےڈیل",54.3,-2.15
2634531,Wensley,Wensley,Wensley,54.3,-1.85
2634532,Wennington,Wennington,Wennington,54.11667,-2.58333
2634533,River Wenning,River Wenning,River Wenning,54.1,-2.65
2634534,Wenlock Edge,Wenlock Edge,Wenlock Edge,52.5,-2.66667
2634535,Wenhaston,Wenhaston,Wenhaston,52.32653,1.55628
2634536,Wendy,Wendy,Wendy,52.11154,-0.06918
2634537,Wendron,Wendron,Wendron,50.13333,-5.25
2634538,Wendover,Wendover,,51.76301,-0.74149
2634539,Wendling,Wendling,,52.67888,0.85307
2634540,Wendlebury,Wendlebury,,51.87172,-1.18652
2634541,Wendens Ambo,Wendens Ambo,"Wenden Ambo,Wendens Ambo",52.00354,0.20119
2634542,Carnedd Wen,Carnedd Wen,,52.7,-3.58333
2634543,Wemyss Point,Wemyss Point,,55.88333,-4.9
2634545,Wemyss Bay,Wemyss Bay,Wemyss Bay,55.87614,-4.8895
2634546,Wemyss Bay,Wemyss Bay,,55.86667,-4.9
2634547,Wembury Bay,Wembury Bay,,50.30831,-4.08503
2634548,Wembury,Wembury,Wembury,50.32272,-4.07529
2634549,Wembley,Wembley,"Uembli,Vembli,u~enburi,vembali,wembeulli,wen bu li,Вембли,Уембли,ویمبلے,वेम्बली,ウェンブリー,温布利,웸블리",51.55242,-0.29686
2634550,Wem,Wem,,52.85835,-2.71826
2634551,Welwyn Hatfield,Welwyn Hatfield,,51.75,-0.21667
2634552,Welwyn Garden City,Welwyn Garden City,"Garden City,Uehlin-Garden-Siti,Welwyn Garden,Welwyn Garden City,wellingadeunsiti,Уэлин-Гарден-Сити,ウェリン・ガーデン・シティ,웰린가든시티",51.80174,-0.20691
2634553,Welwyn,Welwyn,Welwyn,51.8331,-0.21359
2634554,Welwick,Welwick,,53.66824,0.03155
2634555,Welton le Wold,Welton le Wold,"Welton,Welton le Wold",53.36531,-0.08657
2634556,Welton,Welton,,54.78333,-3
2634557,Welton,Welton,"Welton,Welton  East Yorkshire",53.73211,-0.55232
2634558,Welton,Welton,Welton,53.3,-0.48333
2634559,Welton,Welton,,52.28935,-1.14977
2634560,Welshpool,Welshpool,"Uelshpul,Velspulas,Velšpulas,Welshpool,Y Trallwng,welsipul,Уелшпул,웰시풀",52.65973,-3.1471
2634561,Welsh Hook,Welsh Hook,"Hook,Welsh Hook",51.5,-2.91667
2634562,Welsh Grounds,Welsh Grounds,,51.54111,-2.80944
2634563,Welshampton,Welshampton,Welshampton,52.90985,-2.83853
2634564,Welney,Welney,,52.52291,0.24829
2634565,Wells Rock,Wells Rock,,50.28333,-3.93333
2634566,Wells of Ythan,Wells of Ythan,Wells of Ythan,57.41667,-2.6
2634567,Wells-next-the-Sea,Wells-next-the-Sea,"Wells,Wells-next-the-Sea,Wells-on-Sea",52.95164,0.8511
2634568,Wells Harbour,Wells Harbour,Wells Harbour,52.96667,0.85
2634569,Wells,Wells,"Uehls,Wellae,Wells,u~eruzu,wei er si,wlz,wlz  anglstan,Уэлс,ولز,ولز، انگلستان,ウェルズ,韋爾斯",51.20794,-2.64896
2634570,Wellow,Wellow,Wellow,53.18333,-0.98333
2634571,Wellow,Wellow,,51.32444,-2.37417
2634572,Welloe,Welloe,,50.08333,-5.38333
2634573,Wellington,Wellington,"Vellington,Wellington,Веллингтон",52.7,-2.51667
2634574,Wellington,Wellington,,52.12753,-2.74899
2634575,Wellington,Wellington,Wellington i Somerset,50.98005,-3.23067
2634576,Wellingore,Wellingore,Wellingore,53.10016,-0.53134
2634577,Wellingham,Wellingham,,52.76532,0.77155
2634578,Wellingborough,Wellingborough,"Uelingburou,Velingboro,Vellingboro,Wellingborough,XWE,wei ling bo lei,Велингборо,Веллингборо,Уелингбъроу,ولینگ‌بورو,韋靈伯勒",52.30273,-0.69446
2634579,Welling,Welling,"Welling,wylng,ویلنگ",51.46246,0.10759
2634581,Wellesbourne Mountford,Wellesbourne Mountford,,52.18333,-1.58333
2634582,Wellesbourne Hastings,Wellesbourne Hastings,"Wellesbourne,Wellesbourne Hastings",52.18333,-1.58333
2634583,Well Bank,Well Bank,,53.25,2
2634584,Welland Outfall,Welland Outfall,,52.9,0.01667
2634585,River Welland,River Welland,River Welland,52.86667,-0.05
2634586,Welland,Welland,Welland,52.05,-2.3
2634587,The Well,The Well,,53.03333,0.43333
2634588,Well,Well,Well,54.23333,-1.58333
2634589,Welford,Welford,Welford,52.41667,-1.05
2634590,Welford,Welford,Welford,51.45727,-1.41131
2634591,Weldon,Weldon,Weldon,52.48333,-0.63333
2634592,Welcombe,Welcombe,Welcombe,50.93784,-4.52327
2634593,Welby,Welby,,52.93312,-0.55069
2634594,Welbury,Welbury,Welbury,54.41568,-1.38853
2634595,Welburn,Welburn,Welburn,54.25,-0.95
2634596,Welbourn,Welbourn,Welbourn,53.07588,-0.55876
2634597,Welborne,Welborne,Welborne,52.65,1.05
2634598,Welbeck Abbey,Welbeck Abbey,Welbeck Abbey,53.25,-1.15
2634599,Weisdale Voe,Weisdale Voe,,60.21667,-1.31667
2634600,Weeton Station,Weeton Station,WET,53.92305,-1.58134
2634601,Weeton,Weeton,Weeton,53.91667,-1.56667
2634602,Weeton,Weeton,,53.8,-2.93333
2634603,Weeting,Weeting,Weeting,52.4644,0.61485
2634604,Weethley,Weethley,,52.19322,-1.92827
2634605,Weethick Head,Weethick Head,,58.96667,-2.88333
2634606,Weem,Weem,Weem,56.62526,-3.88769
2634607,Weelie Taing,Weelie Taing,,59.36667,-2.86667
2634608,Weeley,Weeley,,51.85806,1.1163
2634609,Week Saint Mary,Week Saint Mary,,50.75,-4.5
2634610,Weekley,Weekley,Weekley,52.41739,-0.69754
2634611,Weeke,Weeke,,51.06667,-1.33333
2634612,Weeford,Weeford,Weeford,52.63239,-1.79232
2634613,Weedon Beck,Weedon Beck,"Weedon,Weedon Bec,Weedon Beck",52.21667,-1.06667
2634614,Weedon,Weedon,,51.85603,-0.81951
2634615,Wee Collin,Wee Collin,,54.8,-6.01667
2634616,Wednesfield,Wednesfield,Wednesfield,52.5963,-2.08508
2634617,Wednesbury,Wednesbury,,52.5514,-2.02355
2634618,Wedmore,Wedmore,,51.22727,-2.81152
2634619,Wedderlie,Wedderlie,,55.75,-2.56667
2634620,Wedder Holm,Wedder Holm,,60.65,-0.88333
2634621,Weaverthorpe,Weaverthorpe,Weaverthorpe,54.12437,-0.52413
2634622,Weavers Point,Weavers Point,"Weaver Point,Weavers Point",57.6,-7.1
2634623,Weaverham,Weaverham,,53.26018,-2.57291
2634624,River Weaver,River Weaver,River Weaver,53.3,-2.71667
2634625,Weatherness Sound,Weatherness Sound,,59.25,-2.83333
2634626,Weather Ness,Weather Ness,,59.25,-2.83333
2634627,Weathercote,Weathercote,"Weathercote,Weathercote Cave",54.18333,-2.4
2634628,Weaste,Weaste,Weaste,53.48465,-2.30883
2634629,Weasenham,Weasenham,,52.76667,0.75
2634631,Wear Head,Wear Head,,54.75,-2.21667
2634632,Weare Giffard,Weare Giffard,"Wear Gifford,Weare Giffard,Weare Gifford",50.97693,-4.17165
2634633,Weare,Weare,,51.27059,-2.84267
2634634,River Wear,River Wear,River Wear,54.91806,-1.35972
2634635,Weal Race,Weal Race,,59.15,-3.11667
2634636,Wealdstone,Wealdstone,,51.59398,-0.33362
2634637,Wealden District,Wealden District,,50.91667,0.16667
2634638,The Weald,The Weald,,51.08333,0.41667
2634639,Weald,Weald,,51.24784,0.1878
2634640,Wayland Wood,Wayland Wood,Wayland Wood,52.55,0.83333
2634641,Wayland Farm,Wayland Farm,,52.56667,0.9
2634642,Waxholme,Waxholme,,53.7411,0.00893
2634643,Waxham,Waxham,Waxham,52.77965,1.61577
2634644,Wawne,Wawne,,53.81709,-0.34843
2634645,Wawcott,Wawcott,,51.41667,-1.43333
2634646,Wavertree,Wavertree,,53.39816,-2.91567
2634647,Waverton,Waverton,,54.81602,-3.20887
2634648,Waverton,Waverton,,53.16667,-2.8
2634650,Waverley Abbey,Waverley Abbey,"Abadia de Waverley,Abadía de Waverley,Waverley Abbey",51.2,-0.76667
2634651,River Waver,River Waver,River Waver,54.86667,-3.28333
2634652,River Waveney,River Waveney,,52.58333,1.65
2634653,Wavendon,Wavendon,,52.02541,-0.67411
2634654,Warehorne,Warehorne,,51.05788,0.8393
2634655,Hermon,Hermon,"Hermon,Waun-deg,Waun-dêg",51.95,-4.38333
2634656,Waulkmill Bay,Waulkmill Bay,Waulkmill Bay,58.93333,-3.06667
2634657,Wauldby,Wauldby,Wauldby,53.75,-0.53333
2634658,Wauchope Water,Wauchope Water,"Wauchope Burn,Wauchope Water",55.15,-3
2634659,Wauchope Burn,Wauchope Burn,,55.38333,-2.65
2634660,Watton at Stone,Watton at Stone,"Watton,Watton at Stone",51.85842,-0.11381
2634661,Watton,Watton,,53.93333,-0.45
2634662,Watton,Watton,Watton,52.56667,0.83333
2634663,Wattisham,Wattisham,,52.12543,0.93864
2634664,Wattisfield,Wattisfield,,52.33064,0.94748
2634665,Watten Railway Station,Watten Railway Station,,58.48374,-3.28703
2634666,Loch Watten,Loch Watten,Loch Watten,58.48333,-3.31667
2634667,Watten,Watten,,58.47262,-3.30589
2634668,Watnall Chaworth,Watnall Chaworth,,53,-1.25
2634669,Watnall Cantelupe,Watnall Cantelupe,,53,-1.23333
2634670,Watlington,Watlington,,52.6744,0.39117
2634671,Watlington,Watlington,,51.64327,-1.00448
2634672,Wath upon Dearne,Wath upon Dearne,"Wath,Wath upon Dearne,Wath-on-Dearne",53.50291,-1.3458
2634673,Wath,Wath,Wath,54.18333,-1.5
2634674,Wath,Wath,,54.1,-1.76667
2634675,Watford West Station,Watford West Station,"Watford West,Watford West Station",51.64855,-0.41431
2634676,Watford,Watford,Watford,52.31687,-1.1158
2634677,Watford,Watford,"Uotford,Votford,Votfordas,Watford,waspeodeu,watfwrd,watofodo,wo te fu de,wtpwrd,wwtpwrd,Вотфорд,Уотфорд,ווטפורד,וטפורד,واتفورد,ワトフォード,沃特福德,왓퍼드",51.65531,-0.39602
2634678,Water Sound,Water Sound,,58.83333,-2.9
2634679,Waterside,Waterside,,57.33333,-2
2634680,Waterside,Waterside,,55.3463,-4.4656
2634681,Waterperry,Waterperry,Waterperry,51.75432,-1.09306
2634682,Water Orton,Water Orton,,52.51575,-1.74005
2634683,Water Newton,Water Newton,Water Newton,52.56106,-0.36435
2634684,Water Mouth,Water Mouth,,51.21667,-4.06667
2634685,Seaforth,Seaforth,"Seaforth,Waterloo,Waterloo with Seaforth",53.46667,-3.01667
2634686,Waterlooville,Waterlooville,"Uoterluvil',Voterluvil,Waterloo,Waterlooville,watrlwwyl,Вотерлувил,Уотерлувиль,واترلوویل",50.88067,-1.0304
2634688,Waterloo Railway Station,Waterloo Railway Station,"Estacao Waterloo,Estação Waterloo,Gare de Londres Waterloo,London Waterloo Station,London Waterloo station,QQW,WAT,Waterloo Railway Station,Waterloo Station,Waterloon rautatieasema",51.50257,-0.11309
2634689,Waterloo,Waterloo,WLO,53.475,-3.026
2634690,Wateringbury,Wateringbury,,51.25543,0.42317
2634691,Waterhouses,Waterhouses,,54.76667,-1.71667
2634692,Waterhouses,Waterhouses,Waterhouses,53.03333,-1.86667
2634693,Watergate Bay,Watergate Bay,Watergate Bay,50.46667,-5.05
2634694,Waterfoot,Waterfoot,,54.53333,-7.85
2634695,Waterfall,Waterfall,,53.05,-1.88333
2634696,Waterden,Waterden,,52.88975,0.80441
2634697,Watercrook,Watercrook,,54.30836,-2.7471
2634698,Water-break-its-neck,Water-break-its-neck,,52.23333,-3.2
2634699,Water Beck,Water Beck,"Water Beck,Waterbeck Burn",55.08333,-3.18333
2634700,Waterbeck,Waterbeck,,55.08701,-3.1817
2634701,Waterbeach,Waterbeach,,52.26553,0.19123
2634702,Watch Water,Watch Water,Watch Water,55.8,-2.5
2634703,Watchfield,Watchfield,,51.61322,-1.64821
2634704,Watchet,Watchet,"Uochet,Watchet,Уочет",51.18189,-3.33079
2634705,Wast Water,Wast Water,Wast Water,54.4417,-3.29487
2634706,Skerry of Wastbist,Skerry of Wastbist,"Skerry of Wastbist,Skerry of Wastbister",59.26667,-2.9
2634707,Wass Wick,Wass Wick,,59.08333,-3.01667
2634709,Wass,Wass,Wass,54.20663,-1.15091
2634710,Wasperton,Wasperton,Wasperton,52.22783,-1.61191
2634711,Waskerley,Waskerley,Waskerley,54.80372,-1.92296
2634712,Wasing,Wasing,Wasing,51.37491,-1.17554
2634714,Washington Reef,Washington Reef,,57.1,-7.46667
2634715,Washington,Washington,"Vashington,Washington,Washington New Town,Washington i Tyne and Wear,washyngtn,Вашингтон,واشینگتن",54.9,-1.51667
2634716,Washington,Washington,,50.90487,-0.40649
2634717,Washingborough,Washingborough,Washingborough,53.22425,-0.47485
2634718,Washing Bay,Washing Bay,Washing Bay,54.53333,-6.58333
2634719,Washford,Washford,Washford,51.16083,-3.36194
2634720,Washfield,Washfield,,50.9281,-3.51635
2634721,River Washburn,River Washburn,River Washburn,53.9,-1.65
2634722,The Wash,The Wash,"The Wash,Zaliv Uosh,Залив Уош",52.91667,0.25
2634723,Warwickshire,Warwickshire,"County of Warwickshire,WAR,Warwick,Warwickshire",52.33333,-1.58333
2634724,Warwick,Warwick,,54.90356,-2.82949
2634725,Warwick,Warwick,"Uorik,Vorik,Vorikas,Warwick,u~orikku,wolig,wwryk,Ворік,Уорик,ووريك,ウォリック,워릭",52.28333,-1.58333
2634726,Warton,Warton,Warton,54.13333,-2.76667
2634727,Warton,Warton,"WRT,Warton",53.74988,-2.89335
2634728,Wartnaby,Wartnaby,,52.8022,-0.94492
2634729,Wartling,Wartling,Wartling,50.85879,0.35431
2634730,Wart Holm,Wart Holm,,59.23333,-2.9
2634731,Warthill House,Warthill House,,57.36667,-2.48333
2634732,Warthill,Warthill,,53.98978,-0.97173
2634733,Warter,Warter,,53.94216,-0.67852
2634734,Point of the Wart,Point of the Wart,,59.13333,-2.95
2634736,Warsop,Warsop,,53.21402,-1.15091
2634737,Warslow,Warslow,Warslow,53.12581,-1.87285
2634738,Warsash,Warsash,Warsash,50.85331,-1.3003
2634739,Warrington,Warrington,"Uorrington,Vorington,Warrington,waryngtwn,wo ling dun,wolingteon,Ворингтон,Уоррингтон,وارینگتون,沃灵顿,워링턴",53.39254,-2.58024
2634740,Warrington,Warrington,,52.18446,-0.68759
2634741,Warren Point,Warren Point,,51.20806,-3.45639
2634742,Warren Point,Warren Point,,50.61667,-3.43333
2634743,Warrenpoint,Warrenpoint,,54.10148,-6.25731
2634744,Warrenby,Warrenby,Warrenby,54.61714,-1.09702
2634745,Warren,Warren,,53.23333,-2.16667
2634746,Warren,Warren,,51.63778,-4.98944
2634747,The Warp,The Warp,,51.51667,0.93333
2634748,Warnham Flats,Warnham Flats,,55.61667,-1.75
2634749,Warnham,Warnham,Warnham,51.08978,-0.3495
2634750,Warnford,Warnford,,51.00384,-1.1158
2634751,Warness Skerry,Warness Skerry,,59.13333,-2.78333
2634752,War Ness,War Ness,,59.13333,-2.78333
2634753,Warmsworth,Warmsworth,,53.49696,-1.18211
2634754,Warmley,Warmley,Warmley,51.46004,-2.47811
2634755,Warminster,Warminster,Warminster,51.20434,-2.17873
2634756,Warmington,Warmington,Warmington,52.50684,-0.41083
2634757,Warmington,Warmington,Warmington,52.12537,-1.40372
2634758,Warmingham,Warmingham,,53.14651,-2.43713
2634759,Warlingham,Warlingham,,51.30942,-0.05609
2634760,Warleggan,Warleggan,"Warleggan,Warleggon",50.49162,-4.60042
